PID,GrLivArea,SalePrice,MSSubClass,LotFrontage,LotArea,Alley,LotShape,LandContour,Utilities,LotConfig,LandSlope,Neighborhood,Condition1,Condition2,BldgType,HouseStyle,OverallQual,OverallCond,YearBuilt,YearRemodAdd,RoofStyle,RoofMatl,Exterior1st,Exterior2nd,MasVnrType,MasVnrArea,ExterQual,ExterCond,Foundation,BsmtQual,BsmtCond,BsmtExposure,BsmtFinType1,BsmtFinSF1,BsmtFinType2,BsmtFinSF2,BsmtUnfSF,TotalBsmtSF,Heating,HeatingQC,CentralAir,Electrical,1stFlrSF,2ndFlrSF,LowQualFinSF,BsmtFullBath,BsmtHalfBath,FullBath,HalfBath,BedroomAbvGr,KitchenAbvGr,KitchenQual,TotRmsAbvGrd,Functional,Fireplaces,FireplaceQu,GarageType,GarageYrBlt,GarageFinish,GarageCars,GarageArea,GarageQual,GarageCond,PavedDrive,WoodDeckSF,OpenPorchSF,EnclosedPorch,3SsnPorch,ScreenPorch,PoolArea,PoolQC,Fence,MiscFeature,MiscVal,MoSold,YrSold,SaleType,SaleCondition,Prop_Addr,Latitude,Longitude,Zoning_A (agr),Zoning_C (all),Zoning_FV,Zoning_I (all),Zoning_RH,Zoning_RL,Zoning_RM,Street_Grvl,Street_Pave,ExterQual_Num,PricePerSqFt,TotalBath,Qual_Area_Interact,Log_LotArea,HouseAgeGroup
909176150,856,126000.0,30,68.0,7890,,Reg,Lvl,AllPub,Corner,Gtl,SWISU,Norm,Norm,1Fam,1Story,6,6,1939,1950,Gable,CompShg,Wd Sdng,Wd Sdng,,0.0,TA,TA,CBlock,TA,TA,No,Rec,238.0,Unf,0.0,618.0,856.0,GasA,TA,Y,SBrkr,856,0,0,1.0,0.0,1,0,2,1,TA,4,Typ,1,Gd,Detchd,1939.0,Unf,2.0,399.0,TA,TA,Y,0,0,0,0,166,0,,,,0,3,2010,WD ,Normal,436 HAYWARD AVE,42.01856448979592,-93.65161918367347,False,False,False,False,False,True,False,False,True,3,147.024504084014,2.0,5136,8.973478148521036,Old
905476230,1049,139500.0,120,42.0,4235,,Reg,Lvl,AllPub,Inside,Gtl,Edwards,Norm,Norm,TwnhsE,1Story,5,5,1984,1984,Gable,CompShg,HdBoard,HdBoard,BrkFace,149.0,Gd,TA,CBlock,Gd,TA,Mn,GLQ,552.0,ALQ,393.0,104.0,1049.0,GasA,TA,Y,SBrkr,1049,0,0,1.0,0.0,2,0,2,1,Gd,5,Typ,0,,Attchd,1984.0,Fin,1.0,266.0,TA,TA,Y,0,105,0,0,0,0,,,,0,2,2009,WD ,Normal,3416 WEST ST,42.02485531593042,-93.66367099341755,False,False,False,False,False,True,False,False,True,4,132.85714285714286,3.0,5245,8.351374706721296,Recent
911128020,1001,124900.0,30,60.0,6060,,Reg,Lvl,AllPub,Inside,Gtl,IDOTRR,Norm,Norm,1Fam,1Story,5,9,1930,2007,Hip,CompShg,MetalSd,MetalSd,,0.0,Gd,TA,BrkTil,TA,TA,No,ALQ,737.0,Unf,0.0,100.0,837.0,GasA,Ex,Y,SBrkr,1001,0,0,0.0,0.0,1,0,2,1,Gd,5,Typ,0,,Detchd,1930.0,Unf,1.0,216.0,TA,Po,N,154,0,42,86,0,0,,,,0,11,2007,WD ,Normal,320 S 2ND ST,42.021547615297024,-93.61406809992512,False,True,False,False,False,False,False,False,True,4,124.6506986027944,1.0,5005,8.709630081951286,Old
535377150,1039,114000.0,70,80.0,8146,,Reg,Lvl,AllPub,Corner,Gtl,OldTown,Norm,Norm,1Fam,2Story,4,8,1900,2003,Gable,CompShg,MetalSd,MetalSd,,0.0,Gd,Gd,BrkTil,Fa,TA,No,Unf,0.0,Unf,0.0,405.0,405.0,GasA,Gd,Y,SBrkr,717,322,0,0.0,0.0,1,0,2,1,TA,6,Typ,0,,Detchd,1940.0,Unf,1.0,281.0,TA,TA,N,0,0,168,0,111,0,,,,0,5,2009,WD ,Normal,1524 DOUGLAS AVE,42.03739146938776,-93.61220695918368,False,False,False,False,False,True,False,False,True,4,109.61538461538461,1.0,4156,9.005405040310642,Old
534177230,1665,227000.0,60,70.0,8400,,Reg,Lvl,AllPub,Inside,Gtl,NWAmes,Norm,Norm,1Fam,2Story,8,6,2001,2001,Gable,CompShg,VinylSd,VinylSd,,0.0,Gd,TA,PConc,Gd,TA,No,GLQ,643.0,Unf,0.0,167.0,810.0,GasA,Ex,Y,SBrkr,810,855,0,1.0,0.0,2,1,3,1,Gd,6,Typ,0,,Attchd,2001.0,Fin,2.0,528.0,TA,TA,Y,0,45,0,0,0,0,,,,0,11,2009,WD ,Normal,2304 FILLMORE AVE,42.04455376067282,-93.63181831620726,False,False,False,False,False,True,False,False,True,4,136.25450180072028,3.5,13320,9.036106025364846,New
908128060,1922,198500.0,85,64.0,7301,,Reg,Lvl,AllPub,Corner,Gtl,Edwards,Norm,Norm,1Fam,SFoyer,7,5,2003,2003,Gable,CompShg,HdBoard,HdBoard,BrkFace,500.0,Gd,TA,Slab,,,,,0.0,,0.0,0.0,0.0,GasA,Ex,Y,SBrkr,495,1427,0,0.0,0.0,3,0,4,1,Gd,7,Typ,1,Ex,BuiltIn,2003.0,RFn,2.0,672.0,TA,TA,Y,0,0,177,0,0,0,,,,0,7,2009,ConLD,Normal,4003 MARIGOLD DR,42.018988,-93.6715721070941,False,False,False,False,False,True,False,False,True,4,103.22412896515861,3.0,13454,8.895903562215581,New
902135020,936,93000.0,20,60.0,6000,Pave,Reg,Bnk,AllPub,Inside,Mod,OldTown,Norm,Norm,2fmCon,1Story,4,4,1953,1953,Gable,CompShg,MetalSd,MetalSd,,0.0,Fa,TA,CBlock,Fa,TA,No,Unf,0.0,Unf,0.0,936.0,936.0,GasA,TA,N,SBrkr,936,0,0,0.0,0.0,1,0,2,1,TA,4,Min2,0,,Detchd,1974.0,Unf,2.0,576.0,TA,TA,Y,0,32,112,0,0,0,,,,0,2,2009,WD ,Normal,212 10TH ST 210,42.03481653077966,-93.64038801352564,False,False,False,False,False,False,True,False,True,2,99.2529348986126,1.0,3744,8.699681400989514,Recent
528228540,1246,187687.0,20,53.0,3710,,Reg,Lvl,AllPub,Inside,Gtl,Blmngtn,Norm,Norm,1Fam,1Story,7,5,2007,2008,Gable,CompShg,WdShing,Wd Shng,BrkFace,20.0,Gd,TA,PConc,Gd,TA,Gd,Unf,0.0,Unf,0.0,1146.0,1146.0,GasA,Ex,Y,SBrkr,1246,0,0,0.0,0.0,2,0,2,1,Gd,5,Typ,1,Gd,Attchd,2007.0,Fin,2.0,428.0,TA,TA,Y,100,24,0,0,0,0,,,,0,3,2008,New,Partial,2431 LAKESIDE DR,42.063308,-93.64230583853364,False,False,False,False,False,True,False,False,True,4,150.51082598235766,2.0,8722,8.219056661060598,New
923426010,889,137500.0,20,74.0,12395,,Reg,Lvl,AllPub,Corner,Gtl,Mitchel,Norm,Norm,1Fam,1Story,5,6,1984,1984,Gable,CompShg,HdBoard,Plywood,,0.0,TA,TA,CBlock,TA,TA,No,ALQ,647.0,Unf,0.0,217.0,864.0,GasA,TA,Y,SBrkr,889,0,0,0.0,0.0,1,0,3,1,TA,6,Typ,0,,Attchd,1984.0,Unf,2.0,484.0,TA,TA,Y,0,0,0,0,0,0,,,,0,4,2008,WD ,Normal,602 KEN MARIL RD,41.98649573595674,-93.6036188257733,False,False,False,False,False,True,False,False,True,3,154.4943820224719,1.0,4445,9.42512911890764,Recent
908186050,1072,140000.0,180,35.0,3675,,Reg,Lvl,AllPub,Inside,Gtl,Edwards,Norm,Norm,TwnhsE,SFoyer,6,5,2005,2005,Gable,CompShg,VinylSd,VinylSd,Stone,76.0,TA,TA,PConc,Gd,TA,Gd,GLQ,467.0,Unf,0.0,80.0,547.0,GasA,Ex,Y,SBrkr,1072,0,0,1.0,0.0,1,0,2,1,Gd,5,Typ,0,,Basment,2005.0,Fin,2.0,525.0,TA,TA,Y,0,44,0,0,0,0,,,,0,5,2007,WD ,Normal,3901 MARIGOLD DR,42.018963681474496,-93.67006654263754,False,False,False,False,False,False,True,False,True,3,130.47530288909599,2.0,6432,8.209580483475577,New
528186170,1342,219500.0,120,48.0,6240,,Reg,Lvl,AllPub,Inside,Gtl,NridgHt,Norm,Norm,TwnhsE,1Story,8,5,2006,2007,Hip,CompShg,MetalSd,MetalSd,BrkFace,196.0,Gd,TA,PConc,Gd,TA,No,GLQ,24.0,Unf,0.0,1318.0,1342.0,GasA,Ex,Y,SBrkr,1342,0,0,0.0,0.0,2,0,2,1,Gd,6,Typ,1,Gd,Attchd,2007.0,RFn,2.0,550.0,TA,TA,Y,0,35,0,0,0,0,,,,0,2,2008,WD ,Normal,3629 CHILTON AVE,42.03481653077966,-93.64038801352564,False,False,False,False,False,True,False,False,True,4,163.44005956813106,2.0,10736,8.738895704934043,New
923426070,1274,136000.0,60,63.0,10475,,Reg,Lvl,AllPub,Inside,Gtl,Mitchel,Norm,Norm,1Fam,2Story,5,5,1991,1991,Gable,CompShg,HdBoard,HdBoard,,0.0,TA,TA,PConc,Gd,TA,No,Rec,458.0,Unf,0.0,166.0,624.0,GasA,Gd,Y,SBrkr,624,650,0,0.0,0.0,1,1,3,1,TA,6,Typ,0,,Detchd,1993.0,Unf,2.0,576.0,TA,TA,Y,22,0,0,0,0,0,,GdWo,,0,3,2010,WD ,Normal,700 KEN MARIL RD,41.98649987838884,-93.60213991860324,False,False,False,False,False,True,False,False,True,3,106.66666666666667,1.5,6370,9.256842205627603,Recent
902204080,861,80000.0,30,62.0,7404,,Reg,Lvl,AllPub,Corner,Gtl,OldTown,Norm,Norm,1Fam,1Story,4,6,1920,1950,Gable,CompShg,MetalSd,MetalSd,,0.0,TA,TA,BrkTil,Fa,TA,No,Unf,0.0,Unf,0.0,861.0,861.0,GasA,TA,Y,SBrkr,861,0,0,0.0,0.0,1,0,2,1,TA,5,Typ,0,,Detchd,1920.0,Unf,2.0,288.0,TA,TA,N,0,0,128,0,0,0,,,,0,11,2009,Oth,Normal,1102 CARROLL AVE,42.03216732653061,-93.6087965510204,False,False,False,False,False,False,True,False,True,3,92.80742459396751,1.0,3444,8.909910726701899,Old
535105100,1394,159000.0,20,68.0,9500,,IR1,Lvl,AllPub,Inside,Gtl,NAmes,Norm,Norm,1Fam,1Story,6,5,1963,1963,Gable,CompShg,Plywood,Plywood,BrkFace,247.0,TA,TA,CBlock,Gd,TA,No,BLQ,609.0,Unf,0.0,785.0,1394.0,GasA,Gd,Y,SBrkr,1394,0,0,1.0,0.0,1,1,3,1,TA,6,Typ,2,Gd,Attchd,1963.0,RFn,2.0,514.0,TA,TA,Y,0,76,0,0,185,0,,,,0,7,2009,WD ,Normal,2519 KELLOGG AVE,42.04690161396658,-93.61572103026556,False,False,False,False,False,True,False,False,True,3,113.97849462365592,2.5,8364,9.15915233520675,Recent
907405020,1536,214000.0,20,70.0,9135,,Reg,Lvl,AllPub,Inside,Gtl,CollgCr,Norm,Norm,1Fam,1Story,7,5,2002,2003,Gable,CompShg,VinylSd,VinylSd,BrkFace,113.0,Gd,TA,PConc,Gd,TA,Av,GLQ,810.0,Unf,0.0,726.0,1536.0,GasA,Ex,Y,SBrkr,1536,0,0,1.0,0.0,2,0,3,1,Gd,7,Typ,0,,Attchd,2002.0,RFn,2.0,532.0,TA,TA,Y,192,74,0,0,0,0,,,,0,12,2008,WD ,Normal,812 TENNYSON AVE,42.01590809090909,-93.6876522121212,False,False,False,False,False,True,False,False,True,4,139.23227065712427,3.0,10752,9.119977931895791,New
531382110,1680,163000.0,60,50.0,8480,,IR1,Lvl,AllPub,Inside,Gtl,SawyerW,Norm,Norm,1Fam,2Story,6,5,1993,1994,Gable,CompShg,HdBoard,HdBoard,BrkFace,120.0,Gd,TA,PConc,Gd,TA,No,GLQ,602.0,Unf,0.0,284.0,886.0,GasA,Ex,Y,SBrkr,886,794,0,0.0,1.0,2,1,3,1,Gd,7,Typ,0,,Attchd,1993.0,RFn,2.0,474.0,TA,TA,Y,144,96,0,0,0,0,,,,0,10,2008,WD ,Normal,5220 MARYLAND ST,42.03586941394644,-93.68920687419867,False,False,False,False,False,True,False,False,True,4,96.96609161213563,3.0,10080,9.0455836463617,Recent
906380120,1274,203000.0,20,68.0,8814,,Reg,Lvl,AllPub,Inside,Gtl,CollgCr,Norm,Norm,1Fam,1Story,7,5,2005,2007,Gable,CompShg,VinylSd,VinylSd,BrkFace,80.0,Gd,TA,PConc,Gd,TA,No,GLQ,925.0,Unf,0.0,349.0,1274.0,GasA,Ex,Y,SBrkr,1274,0,0,1.0,0.0,2,0,3,1,Gd,6,Typ,0,,Attchd,2005.0,RFn,2.0,508.0,TA,TA,Y,264,98,0,0,0,0,,,,0,1,2007,New,Partial,319 HARTFORD DR,42.02481975297594,-93.68911130789051,False,False,False,False,False,True,False,False,True,4,159.2156862745098,3.0,8918,9.08421009483197,New
909101060,864,67000.0,30,45.0,8248,Grvl,Reg,Lvl,AllPub,Inside,Gtl,Edwards,Norm,Norm,1Fam,1Story,3,3,1914,1950,Gable,CompShg,Stucco,Stucco,,0.0,TA,TA,BrkTil,TA,TA,No,BLQ,41.0,Unf,0.0,823.0,864.0,GasA,TA,N,FuseF,864,0,0,1.0,0.0,1,0,2,1,TA,5,Typ,0,,,1978.0,,0.0,0.0,,,N,0,0,100,0,0,0,,,,0,9,2008,WD ,Normal,2910 WOOD ST,42.02208247765018,-93.65692684113984,False,False,False,False,False,True,False,False,True,3,77.45664739884393,2.0,2592,9.017847259860732,Old
534152050,1610,205000.0,20,68.0,10603,,IR1,Lvl,AllPub,Inside,Gtl,NWAmes,Norm,Norm,1Fam,1Story,6,7,1977,2001,Gable,CompShg,Plywood,Plywood,BrkFace,28.0,TA,TA,PConc,TA,TA,Mn,ALQ,1200.0,Unf,0.0,410.0,1610.0,GasA,Gd,Y,SBrkr,1610,0,0,1.0,0.0,2,0,3,1,Gd,6,Typ,2,TA,Attchd,1977.0,RFn,2.0,480.0,TA,TA,Y,168,68,0,0,0,0,,,,0,2,2010,WD ,Normal,2102 PRAIRIE VIEW EAST,42.04331646337044,-93.63727919577092,False,False,False,False,False,True,False,False,True,3,127.25015518311608,3.0,9660,9.268986567408916,Recent
923252075,1091,131250.0,80,62.0,7706,,Reg,Lvl,AllPub,Inside,Gtl,Mitchel,Norm,Norm,1Fam,SLvl,6,5,1993,1996,Gable,CompShg,HdBoard,HdBoard,,0.0,TA,Gd,CBlock,Gd,TA,Av,Rec,114.0,GLQ,270.0,0.0,384.0,GasA,Ex,Y,SBrkr,1091,0,0,0.0,1.0,1,0,2,1,TA,5,Typ,0,,Attchd,1993.0,Fin,1.0,429.0,TA,TA,Y,280,0,0,0,0,0,,,Shed,700,8,2009,WD ,Normal,424 TEAGARDEN DR,41.98752773737374,-93.6061805959596,False,False,False,False,False,True,False,False,True,3,120.1923076923077,1.5,6546,8.949884285777994,Recent
531376060,1486,181000.0,20,65.0,7441,,IR1,Lvl,AllPub,Inside,Gtl,SawyerW,Norm,Norm,1Fam,1Story,7,5,2006,2006,Gable,CompShg,VinylSd,VinylSd,BrkFace,170.0,Gd,TA,PConc,Gd,TA,No,Unf,0.0,Unf,0.0,1461.0,1461.0,GasA,Ex,Y,SBrkr,1486,0,0,0.0,0.0,2,0,3,1,Gd,7,Typ,0,,Attchd,2006.0,RFn,2.0,566.0,TA,TA,Y,0,32,0,0,0,0,,,,0,6,2007,WD ,Normal,1514 CALIFORNIA AVE,42.03717083511299,-93.69121204722514,False,False,False,False,False,True,False,False,True,4,121.72158708809684,2.0,10402,8.914894908906568,New
902201120,789,115000.0,20,50.0,6000,,Reg,Lvl,AllPub,Inside,Gtl,OldTown,Norm,Norm,1Fam,1Story,5,5,1948,1950,Gable,CompShg,VinylSd,VinylSd,,0.0,TA,TA,CBlock,TA,TA,No,ALQ,104.0,BLQ,169.0,516.0,789.0,GasA,Ex,Y,SBrkr,789,0,0,0.0,0.0,1,0,2,1,TA,5,Typ,0,,Detchd,1948.0,Unf,1.0,250.0,TA,TA,Y,0,0,0,0,0,0,,,,0,4,2008,WD ,Partial,1216 CARROLL AVE,42.03351832653061,-93.6088355510204,False,False,False,False,False,False,True,False,True,3,145.56962025316454,1.0,3945,8.699681400989514,Old
923228080,1092,98000.0,160,21.0,1477,,Reg,Lvl,AllPub,Inside,Gtl,MeadowV,Norm,Norm,Twnhs,2Story,6,9,1970,2007,Gable,CompShg,CemntBd,CmentBd,,0.0,TA,Gd,CBlock,TA,TA,No,GLQ,358.0,Unf,0.0,188.0,546.0,GasA,Ex,Y,SBrkr,546,546,0,0.0,0.0,2,1,3,1,TA,6,Typ,0,,,1978.0,,0.0,0.0,,,Y,187,0,0,0,0,0,,,,0,3,2008,WD ,Normal,626 MEADOW PL,41.99215551070729,-93.6030863886634,False,False,False,False,False,False,True,False,True,3,89.66148215919488,2.5,6552,7.298445101508147,Recent
902326030,2640,265979.0,70,65.0,11700,Pave,IR1,Lvl,AllPub,Corner,Gtl,OldTown,Norm,Norm,1Fam,2Story,7,7,1880,2003,Mansard,CompShg,Stucco,Stucco,,0.0,Gd,TA,Stone,TA,Fa,No,Unf,0.0,Unf,0.0,1240.0,1240.0,GasW,TA,N,SBrkr,1320,1320,0,0.0,0.0,1,1,4,1,Gd,8,Typ,1,Gd,Detchd,1950.0,Unf,4.0,864.0,TA,TA,N,181,0,386,0,0,0,,,,0,5,2009,WD ,Normal,829 DOUGLAS AVE,42.02935814285714,-93.61228857142856,False,False,False,False,False,False,True,False,True,4,100.71147292692162,1.5,18480,9.367429587218957,Old
527451330,1092,105500.0,160,21.0,1680,,Reg,Lvl,AllPub,Inside,Gtl,BrDale,Norm,Norm,Twnhs,2Story,5,5,1971,1971,Gable,CompShg,HdBoard,HdBoard,BrkFace,492.0,TA,TA,CBlock,TA,TA,No,Rec,300.0,Unf,0.0,225.0,525.0,GasA,TA,Y,SBrkr,525,567,0,0.0,0.0,1,1,3,1,TA,6,Typ,0,,Detchd,1997.0,Unf,1.0,320.0,TA,TA,Y,0,0,0,0,0,0,,,,0,3,2010,WD ,Normal,1342 BARKLEY CT,42.051676299375686,-93.62760442259348,False,False,False,False,False,False,True,False,True,3,96.52333028362305,1.5,5460,7.427144133408616,Recent
528218100,1458,168165.0,60,58.0,13204,,IR1,Lvl,AllPub,Inside,Gtl,Gilbert,RRAn,Norm,1Fam,2Story,7,5,2006,2007,Gable,CompShg,VinylSd,VinylSd,Stone,44.0,TA,TA,PConc,Gd,TA,No,Unf,0.0,Unf,0.0,608.0,608.0,GasA,Ex,Y,SBrkr,608,850,0,0.0,0.0,2,0,3,1,Gd,6,Typ,0,,BuiltIn,2007.0,Fin,2.0,454.0,TA,TA,Y,100,33,0,0,0,0,,,,0,5,2007,New,Partial,4205 CRESTMOOR AVE,42.0619889732416,-93.64550296114534,False,False,False,False,False,True,False,False,True,3,115.26045236463331,2.0,10206,9.488350824731233,New
916386140,1466,201000.0,20,73.0,8925,,IR1,HLS,AllPub,Inside,Gtl,Timber,Norm,Norm,1Fam,1Story,8,5,2007,2007,Gable,CompShg,VinylSd,VinylSd,,0.0,Gd,TA,PConc,Gd,TA,Av,GLQ,16.0,Unf,0.0,1450.0,1466.0,GasA,Ex,Y,SBrkr,1466,0,0,0.0,0.0,2,0,3,1,Gd,7,Typ,0,,Attchd,2007.0,Fin,3.0,610.0,TA,TA,Y,100,18,0,0,0,0,,,,0,7,2009,WD ,Normal,3028 COTTONTAIL LN,41.994931209457846,-93.650374,False,False,False,False,False,True,False,False,True,4,137.01431492842536,2.0,11728,9.096723645189215,New
533221090,1573,177500.0,160,68.0,2117,,Reg,Lvl,AllPub,Inside,Gtl,Somerst,Norm,Norm,Twnhs,2Story,6,5,2000,2000,Gable,CompShg,MetalSd,MetalSd,BrkFace,216.0,Gd,TA,PConc,Gd,TA,No,GLQ,378.0,Unf,0.0,378.0,756.0,GasA,Ex,Y,SBrkr,769,804,0,0.0,0.0,2,1,3,1,Gd,5,Typ,0,,Detchd,2000.0,Unf,2.0,440.0,TA,TA,Y,0,32,0,0,0,0,,,,0,6,2010,WD ,Normal,2711 HAMPTON ST,42.046150735023375,-93.6457721435571,False,False,True,False,False,False,False,False,True,4,112.7700127064803,2.5,9438,7.658227526161352,Recent
534128010,2090,200000.0,60,68.0,10382,,IR1,Lvl,AllPub,Corner,Gtl,NWAmes,PosN,Norm,1Fam,2Story,7,6,1973,1973,Gable,CompShg,HdBoard,HdBoard,Stone,240.0,TA,TA,CBlock,Gd,TA,Mn,ALQ,859.0,BLQ,32.0,216.0,1107.0,GasA,Ex,Y,SBrkr,1107,983,0,1.0,0.0,2,1,3,1,TA,7,Typ,2,TA,Attchd,1973.0,RFn,2.0,484.0,TA,TA,Y,235,204,228,0,0,0,,,Shed,350,11,2009,WD ,Normal,1636 JOHNSON ST,42.04903420384354,-93.63264578650906,False,False,False,False,False,True,False,False,True,3,95.64801530368244,3.5,14630,9.247925132303454,Recent
528106110,2046,437780.1199999994,20,105.0,15431,,Reg,Lvl,AllPub,Inside,Gtl,NridgHt,Norm,Norm,1Fam,1Story,10,5,2005,2006,Hip,CompShg,VinylSd,VinylSd,BrkFace,400.0,Ex,TA,PConc,Ex,TA,Gd,GLQ,1430.0,Unf,0.0,564.0,1994.0,GasA,Ex,Y,SBrkr,2046,0,0,1.0,0.0,2,1,2,1,Ex,7,Typ,2,Gd,Attchd,2005.0,Fin,3.0,878.0,TA,TA,Y,188,65,0,0,175,0,,,,0,8,2007,WD ,Normal,3331 WESTON DR,42.06129117942748,-93.65753648637376,False,False,False,False,False,True,False,False,True,5,213.86425012212965,3.5,20460,9.644198554585564,New
902206260,886,91300.0,30,50.0,5784,,Reg,Lvl,AllPub,Inside,Gtl,OldTown,Artery,Norm,1Fam,1Story,5,8,1938,1996,Gable,CompShg,MetalSd,MetalSd,,0.0,TA,TA,BrkTil,Fa,TA,No,Unf,0.0,Unf,0.0,190.0,190.0,GasA,Gd,Y,FuseA,886,0,0,0.0,0.0,1,0,2,1,TA,4,Typ,0,,Attchd,1938.0,Unf,1.0,273.0,TA,TA,Y,144,20,80,0,0,0,,,,0,12,2009,WD ,Normal,926 DUFF AVE,42.03109366137248,-93.61045453926472,False,False,False,False,False,False,True,False,True,3,102.93122886133033,1.0,4430,8.663023639627777,Old
528222090,1258,173500.0,20,64.0,7697,,Reg,Lvl,AllPub,Inside,Gtl,Gilbert,Norm,Norm,1Fam,1Story,7,6,2007,2007,Gable,CompShg,VinylSd,VinylSd,BrkFace,0.0,Gd,TA,PConc,Gd,TA,No,Unf,0.0,Unf,0.0,1246.0,1246.0,GasA,Ex,Y,SBrkr,1258,0,0,0.0,0.0,2,0,3,1,Gd,6,Typ,0,,Attchd,2007.0,RFn,2.0,462.0,TA,TA,Y,0,0,0,0,0,0,,,,0,8,2007,New,Partial,4302 WELBECK DR,42.06322648533865,-93.64433362330249,False,False,False,False,False,True,False,False,True,4,137.80778395552025,2.0,8806,8.948715833843691,New
528218150,1324,199500.0,20,100.0,18494,,IR1,Lvl,AllPub,Corner,Gtl,Gilbert,Norm,Norm,1Fam,1Story,6,5,2005,2005,Gable,CompShg,VinylSd,VinylSd,,0.0,Gd,TA,PConc,Gd,TA,No,Unf,0.0,Unf,0.0,1324.0,1324.0,GasA,Ex,Y,SBrkr,1324,0,0,0.0,0.0,2,0,3,1,Gd,6,Typ,0,,Attchd,2005.0,Fin,2.0,430.0,TA,TA,Y,36,23,0,0,0,0,,,,0,1,2010,WD ,Normal,4103 CRESTMOOR AVE,42.06188820235543,-93.64447838998942,False,False,False,False,False,True,False,False,True,4,150.56603773584905,2.0,7944,9.825255704266555,New
903400180,1848,207000.0,50,64.0,13053,Pave,Reg,Bnk,AllPub,Inside,Gtl,BrkSide,Norm,Norm,1Fam,1.5Fin,6,7,1923,2000,Gambrel,CompShg,Wd Sdng,Wd Sdng,,0.0,TA,TA,BrkTil,TA,TA,No,Unf,0.0,Unf,0.0,833.0,833.0,GasA,Gd,Y,SBrkr,1053,795,0,0.0,0.0,1,1,4,1,Gd,8,Typ,1,Gd,Detchd,1922.0,Unf,2.0,370.0,TA,TA,N,0,0,0,0,220,0,,,,0,6,2008,WD ,Normal,816 BROOKRIDGE AVE,42.02954372815348,-93.62737676136398,False,False,False,False,False,True,False,False,True,3,111.95240670632775,1.5,11088,9.476849879195163,Old
535453210,1269,155000.0,20,70.0,7931,,Reg,Lvl,AllPub,Inside,Gtl,NAmes,Norm,Norm,1Fam,1Story,5,6,1960,1960,Gable,CompShg,BrkFace,Wd Sdng,,0.0,TA,TA,CBlock,TA,TA,No,BLQ,374.0,LwQ,532.0,363.0,1269.0,GasA,TA,Y,FuseA,1269,0,0,0.0,0.0,1,1,3,1,TA,6,Typ,1,Fa,Detchd,1964.0,Unf,1.0,308.0,TA,TA,Y,0,0,0,0,0,0,,,,0,6,2008,WD ,Normal,1522 MAXWELL AVE,42.037273779743664,-93.60675880919582,False,False,False,False,False,True,False,False,True,3,122.04724409448819,1.5,6345,8.978660489639687,Recent
916386010,1346,220000.0,20,88.0,11896,,IR1,Lvl,AllPub,Corner,Gtl,Timber,Norm,Norm,1Fam,1Story,7,5,2008,2008,Gable,CompShg,VinylSd,VinylSd,Stone,60.0,Gd,TA,PConc,Gd,TA,No,GLQ,78.0,Unf,0.0,1258.0,1336.0,GasA,Ex,Y,SBrkr,1346,0,0,1.0,0.0,2,0,3,1,Gd,6,Typ,1,TA,Attchd,2008.0,Fin,3.0,660.0,TA,TA,Y,100,48,0,0,0,0,,,,0,5,2010,WD ,Normal,3005 CEDAR LN,41.99523381632653,-93.64923497959184,False,False,False,False,False,True,False,False,True,4,163.32590942835932,3.0,9422,9.384041546476526,New
907181090,1749,196000.0,60,68.0,9272,,IR1,Lvl,AllPub,Inside,Gtl,CollgCr,Norm,Norm,1Fam,2Story,7,5,1999,1999,Gable,CompShg,VinylSd,VinylSd,,0.0,Gd,TA,PConc,Gd,TA,No,GLQ,500.0,Unf,0.0,342.0,842.0,GasA,Ex,Y,SBrkr,856,893,0,0.0,0.0,2,1,3,1,Gd,7,Typ,0,,Attchd,1999.0,RFn,2.0,515.0,TA,TA,Y,140,85,0,0,0,0,,,,0,6,2006,WD ,Normal,5408 CERVANTES DR,42.017335540535086,-93.69270120197211,False,False,False,False,False,True,False,False,True,4,112.0,2.5,12243,9.134862230800225,Recent
902206020,492,61500.0,30,52.0,7830,,Reg,Lvl,AllPub,Inside,Gtl,OldTown,Norm,Norm,1Fam,1Story,3,5,1921,1950,Gable,CompShg,AsbShng,AsbShng,,0.0,TA,TA,BrkTil,Fa,TA,No,LwQ,416.0,Unf,0.0,76.0,492.0,GasA,TA,Y,SBrkr,492,0,0,1.0,0.0,1,0,1,1,TA,3,Typ,0,,Detchd,1921.0,Unf,1.0,200.0,Fa,TA,N,0,0,78,0,0,0,,,,0,6,2006,WD ,Normal,118 E 11TH ST,42.03195016326531,-93.61018020408164,False,False,False,False,False,False,True,False,True,3,124.74645030425964,2.0,1476,8.965845494750937,Old
527327050,2030,195000.0,60,68.0,12046,,IR1,Lvl,AllPub,Inside,Gtl,NWAmes,Norm,Norm,1Fam,2Story,6,6,1976,1976,Gable,CompShg,Plywood,Plywood,BrkFace,298.0,TA,TA,CBlock,TA,TA,No,LwQ,156.0,Unf,0.0,692.0,848.0,GasA,TA,Y,SBrkr,1118,912,0,0.0,0.0,2,1,4,1,Gd,8,Typ,1,TA,Attchd,1976.0,Fin,2.0,551.0,TA,TA,Y,0,224,0,0,0,0,,,,0,6,2007,WD ,Normal,3323 BUCHANAN CT,42.05450581967213,-93.6315601147541,False,False,False,False,False,True,False,False,True,3,96.01181683899557,2.5,12180,9.396570945266852,Recent
527455250,988,129250.0,20,65.0,7150,,Reg,Lvl,AllPub,Inside,Gtl,NAmes,Norm,Norm,1Fam,1Story,5,6,1966,1966,Hip,CompShg,HdBoard,HdBoard,BrkFace,52.0,TA,TA,CBlock,TA,TA,No,BLQ,725.0,Unf,0.0,263.0,988.0,GasA,TA,Y,SBrkr,988,0,0,1.0,0.0,1,0,3,1,TA,5,Typ,0,,Detchd,1974.0,Unf,1.0,360.0,TA,TA,Y,0,0,0,0,0,0,,,,0,11,2007,WD ,Normal,1115 28TH ST,42.048851159119046,-93.6253976305988,False,False,False,False,False,True,False,False,True,3,130.68756319514662,2.0,4940,8.875007486048396,Recent
528326110,2172,291000.0,60,68.0,11000,,Reg,Lvl,AllPub,FR2,Gtl,NoRidge,Norm,Norm,1Fam,2Story,9,5,2000,2000,Hip,CompShg,VinylSd,VinylSd,BrkFace,295.0,Gd,TA,PConc,Ex,TA,Mn,Unf,0.0,Unf,0.0,1519.0,1519.0,GasA,Ex,Y,SBrkr,1533,639,0,0.0,0.0,2,1,4,1,Ex,8,Typ,1,TA,BuiltIn,2000.0,RFn,3.0,687.0,TA,TA,Y,162,153,0,0,0,0,,,,0,6,2008,WD ,Normal,3013 ALMOND RD,42.05578479212245,-93.65110150218392,False,False,False,False,False,True,False,False,True,4,133.91624482282558,2.5,19548,9.305741456739435,Recent
914452190,1080,134000.0,20,71.0,9187,,Reg,Bnk,AllPub,Corner,Gtl,Mitchel,Norm,Norm,1Fam,1Story,6,5,1983,1983,Gable,CompShg,VinylSd,VinylSd,,0.0,TA,Gd,PConc,TA,TA,No,ALQ,336.0,Unf,0.0,748.0,1084.0,GasA,TA,Y,SBrkr,1080,0,0,0.0,0.0,1,1,3,1,TA,5,Typ,0,,Attchd,1983.0,Unf,2.0,484.0,TA,TA,Y,120,0,158,0,0,0,,,,0,6,2007,WD ,Normal,302 OPAL CIR,41.99419902380953,-93.60742948809524,False,False,False,False,False,True,False,False,True,3,123.95929694727104,1.5,6480,9.125653563808989,Recent
535425060,1312,186000.0,20,76.0,11355,,IR1,Lvl,AllPub,Corner,Gtl,NAmes,Norm,Norm,1Fam,1Story,7,7,1958,2001,Gable,Tar&Grv,HdBoard,HdBoard,BrkFace,125.0,TA,TA,CBlock,TA,TA,No,BLQ,637.0,Unf,0.0,675.0,1312.0,GasA,Ex,Y,SBrkr,1312,0,0,0.0,0.0,1,1,3,1,TA,6,Typ,1,Gd,Attchd,1958.0,RFn,2.0,495.0,TA,TA,Y,0,304,144,0,0,0,,MnPrv,Othr,6500,4,2008,WD ,Normal,1903 MEADOWLANE AVE,42.04129604081633,-93.6052156734694,False,False,False,False,False,True,False,False,True,3,141.66031987814165,1.5,9184,9.337501517592862,Recent
532376250,925,133500.0,20,68.0,8638,,IR1,Lvl,AllPub,Inside,Gtl,Sawyer,RRAe,Norm,1Fam,1Story,5,6,1963,1963,Gable,CompShg,HdBoard,HdBoard,,0.0,TA,TA,PConc,TA,TA,No,ALQ,181.0,Unf,0.0,744.0,925.0,GasA,Gd,Y,SBrkr,925,0,0,1.0,0.0,1,0,2,1,TA,5,Typ,0,,Detchd,1990.0,Unf,2.0,484.0,TA,TA,Y,203,74,0,0,0,0,,,,0,10,2006,WD ,Normal,4015 TORONTO ST,42.035861571428576,-93.672579,False,False,False,False,False,True,False,False,True,3,144.1684665226782,2.0,4625,9.064042114358884,Recent
535379110,1534,148000.0,70,60.0,10800,Grvl,Reg,Lvl,AllPub,Inside,Gtl,OldTown,Norm,Norm,1Fam,2Story,5,9,1895,1999,Gable,CompShg,Wd Sdng,HdBoard,,0.0,TA,Gd,CBlock,Gd,TA,Av,Unf,0.0,Unf,0.0,736.0,736.0,GasA,Ex,Y,SBrkr,751,783,0,0.0,0.0,1,1,3,1,Gd,6,Typ,0,,,1978.0,,0.0,0.0,,,N,0,112,0,0,0,0,,,,0,7,2007,WD ,Normal,1412 KELLOGG AVE,42.03594679591837,-93.6138648979592,False,False,False,False,False,True,False,False,True,3,96.41693811074919,1.5,7670,9.287394001418473,Old
528118010,2376,325300.0,60,101.0,14215,,IR1,Lvl,AllPub,Corner,Gtl,NridgHt,Norm,Norm,1Fam,2Story,8,5,2005,2006,Gable,CompShg,VinylSd,VinylSd,BrkFace,380.0,Gd,TA,PConc,Ex,TA,Av,Unf,0.0,Unf,0.0,1158.0,1158.0,GasA,Ex,Y,SBrkr,1158,1218,0,0.0,0.0,3,1,4,1,Gd,9,Typ,1,Gd,BuiltIn,2005.0,RFn,3.0,853.0,TA,TA,Y,240,154,0,0,0,0,,,,0,11,2006,New,Partial,3335 PRESTON CIR,42.06042873469387,-93.65768375510204,False,False,False,False,False,True,False,False,True,4,136.85317627261253,3.5,19008,9.562123369834488,New
528235160,1959,215000.0,60,59.0,11796,,IR1,Lvl,AllPub,Inside,Gtl,Gilbert,Norm,Norm,1Fam,2Story,7,5,2004,2005,Gable,CompShg,VinylSd,VinylSd,,0.0,Gd,TA,PConc,Gd,TA,Av,Unf,0.0,Unf,0.0,847.0,847.0,GasA,Ex,Y,SBrkr,847,1112,0,0.0,0.0,2,1,4,1,Gd,8,Typ,1,Gd,BuiltIn,2004.0,Fin,2.0,434.0,TA,TA,Y,100,48,0,0,0,0,,,,0,7,2007,WD ,Normal,3908 WELBECK DR,42.05971268357939,-93.64377151492386,False,False,False,False,False,True,False,False,True,4,109.6938775510204,2.5,13713,9.375600540841843,New
905478030,1716,131000.0,50,60.0,11409,,Reg,Lvl,AllPub,Inside,Gtl,Edwards,Norm,Norm,1Fam,1.5Fin,5,4,1949,2008,Gable,CompShg,Wd Sdng,Wd Sdng,,0.0,TA,TA,CBlock,TA,TA,No,LwQ,292.0,Unf,0.0,476.0,768.0,GasA,Gd,Y,SBrkr,1148,568,0,0.0,0.0,1,1,3,1,TA,8,Min2,1,Gd,Attchd,1949.0,Unf,1.0,281.0,TA,TA,Y,0,0,0,0,160,0,,,,0,1,2009,WD ,Normal,3218 WEST ST,42.02486103224607,-93.66069363575488,False,False,False,False,False,True,False,False,True,3,76.2958648806057,1.5,8580,9.342245442856122,Old
902106130,936,109500.0,30,56.0,4485,Grvl,Reg,Lvl,AllPub,Inside,Gtl,OldTown,Artery,Norm,1Fam,1Story,5,7,1920,1950,Gable,CompShg,Wd Sdng,Wd Sdng,,0.0,TA,TA,PConc,TA,TA,No,BLQ,579.0,Unf,0.0,357.0,936.0,GasA,TA,Y,SBrkr,936,0,0,1.0,0.0,1,0,2,1,TA,5,Typ,1,Gd,,1978.0,,0.0,0.0,,,P,51,0,135,0,0,0,,MnPrv,,0,5,2010,WD ,Normal,1010 GRAND AVE,42.03146246938776,-93.6202082244898,False,False,False,False,False,False,True,False,True,3,116.8623265741729,2.0,4680,8.408716715080153,Old
902102080,1230,110000.0,50,60.0,10440,Grvl,Reg,Lvl,AllPub,Corner,Gtl,OldTown,Norm,Norm,1Fam,2Story,5,6,1910,1981,Gable,CompShg,Wd Sdng,Wd Sdng,,0.0,TA,TA,PConc,TA,TA,No,Unf,0.0,Unf,0.0,440.0,440.0,GasA,Gd,Y,SBrkr,682,548,0,0.0,0.0,1,1,2,1,TA,5,Typ,0,,Detchd,1966.0,Unf,2.0,440.0,TA,TA,Y,74,0,128,0,0,0,,MnPrv,,0,5,2009,WD ,Normal,1203 BURNETT AVE,42.03339248979592,-93.61561781632652,False,False,False,False,False,False,True,False,True,3,89.35824532900081,1.5,6150,9.25349564229011,Old
909176170,2592,150000.0,90,60.0,10890,,Reg,Lvl,AllPub,Inside,Gtl,SWISU,Norm,Norm,Duplex,2Story,5,6,1923,1950,Hip,CompShg,Wd Sdng,Plywood,,0.0,TA,TA,PConc,TA,TA,Mn,Rec,371.0,Unf,0.0,925.0,1296.0,Grav,Fa,N,FuseA,1296,1296,0,2.0,0.0,2,0,6,2,TA,12,Min2,0,,,1978.0,,0.0,0.0,,,Y,0,742,240,0,0,0,,,Shed,1512,1,2007,WD ,AdjLand,426 HAYWARD AVE 428,42.03481653077966,-93.64038801352564,False,False,False,False,False,True,False,False,True,3,57.84805244890089,4.0,12960,9.295692039075686,Old
533206070,1565,193800.0,120,32.0,3784,Pave,IR1,Lvl,AllPub,Inside,Gtl,Somerst,Norm,Norm,TwnhsE,1Story,8,5,2006,2007,Gable,CompShg,VinylSd,VinylSd,Stone,36.0,Gd,TA,PConc,Gd,TA,No,GLQ,60.0,Unf,0.0,1451.0,1511.0,GasA,Ex,Y,SBrkr,1565,0,0,1.0,0.0,2,0,2,1,Gd,5,Typ,0,,Attchd,2006.0,Fin,2.0,476.0,TA,TA,Y,0,120,0,0,0,0,,,,0,2,2007,New,Partial,2807 BRISTOL DR,42.04744045286655,-93.64761628687974,False,False,True,False,False,False,False,False,True,4,123.75478927203065,3.0,12520,8.23880116587155,New
527302020,1868,178000.0,80,78.0,12090,,Reg,Lvl,AllPub,Inside,Gtl,NWAmes,Norm,Norm,1Fam,SLvl,6,7,1984,2003,Hip,CompShg,VinylSd,VinylSd,BrkFace,74.0,TA,TA,CBlock,Gd,TA,No,Unf,0.0,Unf,0.0,585.0,585.0,GasA,Ex,Y,SBrkr,1140,728,0,0.0,0.0,3,1,3,1,TA,7,Typ,1,TA,BuiltIn,1984.0,Fin,2.0,477.0,TA,TA,Y,268,112,0,0,147,0,,,,0,1,2007,WD ,Abnorml,3414 EISENHOWER AVE,42.05547019086042,-93.63783989426828,False,False,False,False,False,True,False,False,True,3,95.23809523809524,3.5,11208,9.400216653174247,Recent
907414060,1422,179600.0,20,63.0,8500,,Reg,Lvl,AllPub,FR2,Gtl,CollgCr,Norm,Norm,1Fam,1Story,7,5,2004,2004,Gable,CompShg,VinylSd,VinylSd,BrkFace,106.0,Gd,TA,PConc,Gd,TA,Av,Unf,0.0,Unf,0.0,1422.0,1422.0,GasA,Ex,Y,SBrkr,1422,0,0,0.0,0.0,2,0,3,1,Gd,7,Typ,0,,Attchd,2004.0,RFn,2.0,626.0,TA,TA,Y,192,60,0,0,0,0,,,,0,11,2007,WD ,Normal,4824 WALLER ST,42.01355127272727,-93.68477896969698,False,False,False,False,False,True,False,False,True,4,126.21222768798313,2.0,9954,9.04793908261736,New
904301060,1200,179000.0,90,60.0,10800,,Reg,Lvl,AllPub,Inside,Gtl,Edwards,Norm,Norm,Duplex,1Story,5,5,1987,1988,Gable,CompShg,Plywood,Plywood,,0.0,TA,TA,CBlock,Gd,Gd,Gd,GLQ,1200.0,Unf,0.0,0.0,1200.0,GasA,TA,Y,SBrkr,1200,0,0,3.0,0.0,3,0,3,1,TA,5,Typ,0,,,1978.0,,0.0,0.0,,,Y,120,0,0,0,0,0,,,,0,3,2009,WD ,Alloca,3012 OAKLAND ST 3014,42.02811888524044,-93.6587373332222,False,False,False,False,False,True,False,False,True,3,149.04246461282264,6.0,6000,9.287394001418473,Recent
532479020,1641,140000.0,50,70.0,10759,,Reg,Lvl,AllPub,Corner,Gtl,Sawyer,Feedr,Norm,1Fam,1.5Fin,5,4,1972,1972,Gable,CompShg,HdBoard,HdBoard,,0.0,TA,Gd,CBlock,Gd,TA,No,LwQ,190.0,ALQ,811.0,0.0,1001.0,GasA,TA,Y,SBrkr,1001,640,0,0.0,0.0,2,0,4,1,TA,5,Typ,1,Gd,Detchd,1972.0,Unf,2.0,490.0,TA,TA,Y,0,0,92,0,0,0,,GdPrv,,0,7,2008,WD ,Normal,1306 SCOTT CIR,42.034612217391306,-93.660487,False,False,False,False,False,True,False,False,True,3,85.26187576126675,2.0,8205,9.283590833715776,Recent
528110070,1973,395000.0,20,110.0,14226,,Reg,Lvl,AllPub,Corner,Gtl,NridgHt,Norm,Norm,1Fam,1Story,8,5,2006,2006,Hip,CompShg,VinylSd,VinylSd,BrkFace,375.0,Gd,TA,PConc,Gd,TA,Av,Unf,0.0,Unf,0.0,1935.0,1935.0,GasA,Gd,Y,SBrkr,1973,0,0,0.0,0.0,2,0,3,1,Gd,9,Typ,1,Gd,Attchd,2006.0,Fin,3.0,895.0,TA,TA,Y,315,45,0,0,0,0,,,,0,7,2007,New,Partial,3207 STOCKBURY ST,42.06226109103388,-93.65618536506652,False,False,False,False,False,True,False,False,True,4,200.1013171225937,2.0,15784,9.562896846651167,New
534429130,1248,151500.0,20,80.0,10800,,Reg,Lvl,AllPub,Inside,Gtl,NAmes,Norm,Norm,1Fam,1Story,5,7,1960,1960,Hip,CompShg,Wd Sdng,Wd Sdng,BrkFace,88.0,TA,TA,CBlock,TA,TA,No,ALQ,632.0,Unf,0.0,616.0,1248.0,GasA,Ex,Y,SBrkr,1248,0,0,1.0,0.0,1,0,3,1,TA,6,Typ,0,,Attchd,1960.0,Unf,1.0,286.0,TA,TA,Y,0,0,0,0,0,0,,MnPrv,,0,5,2006,WD ,Normal,808 NARLAND DR,42.04013450915821,-93.62208412387304,False,False,False,False,False,True,False,False,True,3,121.29703763010409,2.0,6240,9.287394001418473,Recent
528365060,2418,341000.0,60,96.0,10542,,Reg,Lvl,AllPub,Inside,Gtl,NoRidge,Norm,Norm,1Fam,2Story,7,5,1993,1994,Hip,CompShg,Wd Sdng,ImStucc,BrkFace,651.0,Gd,TA,PConc,Gd,TA,Gd,GLQ,1173.0,Unf,0.0,138.0,1311.0,GasA,Ex,Y,SBrkr,1325,1093,0,1.0,0.0,2,1,3,1,Gd,9,Typ,1,TA,Attchd,1993.0,RFn,3.0,983.0,TA,TA,Y,250,154,216,0,0,0,,,,0,8,2008,WD ,Normal,2900 RIDGETOP RD,42.049582,-93.655958,False,False,False,False,False,True,False,False,True,4,140.9673418768086,3.5,16926,9.26321741157695,Recent
533135020,1755,235000.0,60,68.0,11949,,Reg,Lvl,AllPub,Inside,Gtl,NoRidge,Norm,Norm,1Fam,2Story,7,8,1991,2008,Gable,CompShg,VinylSd,VinylSd,BrkFace,196.0,Gd,Gd,PConc,Gd,TA,No,GLQ,601.0,ALQ,216.0,158.0,975.0,GasA,Ex,Y,SBrkr,975,780,0,0.0,1.0,2,1,3,1,Gd,7,Typ,1,TA,Attchd,1991.0,Unf,2.0,524.0,TA,TA,Y,502,60,0,0,0,0,,GdPrv,,0,7,2009,WD ,Normal,2614 SOUTHRIDGE CIR,42.04729657142857,-93.65029642857142,False,False,False,False,False,True,False,False,True,4,133.82687927107062,3.0,12285,9.388486557359657,Recent
910203100,672,72000.0,30,61.0,8534,,Reg,Low,AllPub,Inside,Gtl,IDOTRR,Norm,Norm,1Fam,1Story,4,4,1925,1950,Gable,CompShg,Wd Sdng,Wd Sdng,,0.0,TA,TA,BrkTil,Fa,TA,No,Unf,0.0,Unf,0.0,432.0,432.0,GasA,TA,N,FuseA,672,0,0,0.0,0.0,1,0,2,1,TA,4,Min1,0,,,1978.0,,0.0,0.0,,,N,0,0,112,0,0,0,,GdWo,,0,6,2006,WD ,Normal,301 S RUSSELL AVE,42.020318,-93.628408,False,False,False,False,False,False,True,False,True,3,106.98365527488856,1.0,2688,9.05193063522854,Old
905451390,1626,154000.0,50,70.0,10512,,Reg,Lvl,AllPub,Inside,Gtl,Edwards,Norm,Norm,1Fam,1.5Fin,6,6,1954,1954,Gable,CompShg,Wd Sdng,Wd Sdng,,0.0,TA,TA,CBlock,TA,TA,No,BLQ,491.0,Unf,0.0,497.0,988.0,GasA,Ex,Y,SBrkr,988,638,0,0.0,0.0,1,1,3,1,Gd,6,Typ,0,,Attchd,1954.0,Unf,1.0,332.0,TA,TA,Y,366,0,0,0,0,0,,,,0,5,2007,WD ,Normal,310 WESTWOOD DR,42.0245466193626,-93.66738084341767,False,False,False,False,False,True,False,False,True,3,94.65273509526736,1.5,9756,9.26036786557583,Recent
533213010,1726,222000.0,120,68.0,3830,Pave,IR1,Lvl,AllPub,Inside,Gtl,Somerst,Norm,Norm,TwnhsE,1Story,6,5,2008,2008,Gable,CompShg,VinylSd,VinylSd,Stone,280.0,Gd,TA,PConc,Gd,TA,No,Unf,0.0,Unf,0.0,1726.0,1726.0,GasA,Ex,Y,SBrkr,1726,0,0,0.0,0.0,2,1,2,1,Gd,6,Typ,1,Gd,Attchd,2008.0,Fin,2.0,561.0,TA,TA,Y,0,254,0,0,0,0,,,,0,1,2009,New,Partial,2805 BRISTOL DR,42.04742736392327,-93.6475996487335,False,False,True,False,False,False,False,False,True,4,128.54661262304575,2.5,10356,8.25088114470065,New
528118030,2748,390000.0,60,108.0,13418,,Reg,Lvl,AllPub,Inside,Gtl,NridgHt,Norm,Norm,1Fam,2Story,9,5,2006,2006,Hip,CompShg,VinylSd,VinylSd,BrkFace,270.0,Gd,TA,PConc,Ex,TA,Gd,GLQ,1420.0,Unf,0.0,430.0,1850.0,GasA,Ex,Y,SBrkr,1850,898,0,1.0,0.0,2,1,4,1,Ex,9,Typ,1,Gd,BuiltIn,2006.0,Fin,3.0,850.0,TA,TA,Y,212,182,0,0,0,0,,,,0,10,2008,WD ,Abnorml,3317 PRESTON CIR,42.06042781632653,-93.6575430612245,False,False,False,False,False,True,False,False,True,4,141.8697708257548,3.5,24732,9.504426892100957,New
907200340,894,128200.0,20,75.0,10650,,Reg,Lvl,AllPub,Corner,Gtl,CollgCr,Norm,Norm,1Fam,1Story,5,6,1976,1976,Gable,CompShg,HdBoard,HdBoard,,0.0,TA,TA,CBlock,TA,Gd,Av,LwQ,182.0,ALQ,712.0,0.0,894.0,GasA,TA,Y,SBrkr,894,0,0,1.0,0.0,1,0,3,1,TA,5,Typ,0,,Attchd,1976.0,Unf,1.0,308.0,TA,TA,Y,365,0,0,0,0,0,,MnPrv,,0,2,2010,WD ,Normal,5203 SCHUBERT ST,42.021390115667074,-93.68792039017748,False,False,False,False,False,True,False,False,True,3,143.24022346368716,2.0,4470,9.273409063443166,Recent
528164060,2470,437780.1199999994,20,106.0,12720,,Reg,HLS,AllPub,Inside,Mod,NridgHt,Norm,Norm,1Fam,1Story,10,5,2003,2003,Hip,CompShg,MetalSd,MetalSd,Stone,680.0,Ex,TA,PConc,Ex,TA,Gd,GLQ,2257.0,Unf,0.0,278.0,2535.0,GasA,Ex,Y,SBrkr,2470,0,0,2.0,0.0,1,1,1,1,Ex,7,Typ,2,Gd,Attchd,2003.0,Fin,3.0,789.0,TA,TA,Y,154,65,0,0,216,144,Ex,,,0,2,2008,WD ,Normal,3320 FOXLEY DR,42.05847504704884,-93.65680995634683,False,False,False,False,False,True,False,False,True,5,177.16718737353276,3.5,24700,9.45100945015621,New
907202010,1174,158000.0,20,68.0,12250,,IR1,Lvl,AllPub,Inside,Gtl,CollgCr,Norm,Norm,1Fam,1Story,5,6,1978,1978,Gable,CompShg,HdBoard,HdBoard,BrkFace,180.0,TA,TA,CBlock,Gd,TA,Mn,ALQ,781.0,Unf,0.0,83.0,864.0,GasA,Ex,Y,SBrkr,1174,0,0,1.0,0.0,1,0,3,1,TA,5,Typ,0,,Attchd,1978.0,Unf,2.0,528.0,TA,TA,Y,211,0,280,0,0,0,,,,0,5,2008,WD ,Normal,410 THACKERAY AVE,42.01967954096487,-93.68657648378274,False,False,False,False,False,True,False,False,True,3,134.46808510638297,2.0,5870,9.41336284529417,Recent
528186180,1324,254000.0,120,48.0,6240,,Reg,Lvl,AllPub,Inside,Gtl,NridgHt,Norm,Norm,TwnhsE,1Story,8,5,2006,2006,Hip,CompShg,MetalSd,MetalSd,BrkFace,176.0,Gd,TA,PConc,Gd,TA,No,GLQ,863.0,Unf,0.0,461.0,1324.0,GasA,Ex,Y,SBrkr,1324,0,0,1.0,0.0,2,0,2,1,Gd,6,Typ,1,Gd,Attchd,2006.0,Fin,2.0,550.0,TA,TA,Y,192,38,0,0,0,0,,,,0,12,2009,WD ,Normal,3623 CHILTON AVE,42.03481653077966,-93.64038801352564,False,False,False,False,False,True,False,False,True,4,191.69811320754718,3.0,10592,8.738895704934043,New
909250060,2447,169000.0,50,50.0,9638,,Reg,Lvl,AllPub,Inside,Gtl,SWISU,Feedr,Norm,1Fam,1.5Fin,6,7,1919,1990,Gable,CompShg,Wd Sdng,Wd Shng,,0.0,TA,TA,PConc,TA,TA,No,Unf,0.0,Unf,0.0,804.0,804.0,GasA,Ex,Y,SBrkr,1699,748,0,0.0,0.0,2,0,4,1,Gd,10,Min2,1,Gd,Detchd,1969.0,Unf,1.0,336.0,TA,TA,Y,272,0,42,0,116,0,,,,0,3,2010,WD ,Normal,2320 KNAPP ST,42.019084346938776,-93.64689269387756,False,False,False,False,False,True,False,False,True,3,69.0359477124183,2.0,14682,9.173572647783969,Old
528315060,2199,284500.0,75,84.0,9660,,Reg,Lvl,AllPub,Inside,Gtl,NoRidge,Norm,Norm,1Fam,2.5Unf,8,5,1997,1997,Hip,CompShg,HdBoard,HdBoard,BrkFace,1290.0,Gd,TA,PConc,Gd,TA,No,Unf,0.0,Unf,0.0,1173.0,1173.0,GasA,Ex,Y,SBrkr,1182,1017,0,0.0,0.0,2,1,3,1,Gd,9,Typ,1,TA,Attchd,1997.0,Fin,2.0,516.0,TA,TA,Y,0,131,0,0,0,0,,,,0,9,2008,WD ,Normal,3142 BAYBERRY RD,42.05392142671923,-93.65478466554772,False,False,False,False,False,True,False,False,True,4,129.3181818181818,2.5,17592,9.17585244151751,Recent
528231020,1374,184500.0,80,67.0,13300,,IR1,Lvl,AllPub,Inside,Gtl,Gilbert,Norm,Norm,1Fam,SLvl,7,5,2004,2004,Gable,CompShg,VinylSd,VinylSd,,0.0,Gd,TA,PConc,Gd,TA,No,GLQ,326.0,Unf,0.0,58.0,384.0,GasA,Ex,Y,SBrkr,744,630,0,1.0,0.0,2,1,3,1,Gd,7,Typ,1,Gd,BuiltIn,2004.0,Fin,2.0,400.0,TA,TA,Y,100,0,0,0,0,0,,,,0,6,2010,WD ,Normal,3917 WELBECK DR,42.06011711190303,-93.64407676418914,False,False,False,False,False,True,False,False,True,4,134.1818181818182,3.5,9618,9.495594499353297,New
528456230,1335,210400.0,20,75.0,9000,,Reg,Lvl,AllPub,Inside,Gtl,Somerst,Norm,Norm,1Fam,1Story,7,5,2006,2007,Gable,CompShg,VinylSd,VinylSd,,0.0,Gd,TA,PConc,Gd,TA,No,Unf,0.0,Unf,0.0,1335.0,1335.0,GasA,Ex,Y,SBrkr,1335,0,0,0.0,0.0,2,0,3,1,Gd,6,Typ,0,,Attchd,2007.0,RFn,2.0,575.0,TA,TA,Y,0,210,0,0,0,0,,,,0,6,2007,New,Partial,2841 ASPEN RD,42.05118981781087,-93.64722440955204,False,False,True,False,False,False,False,False,True,4,157.48502994011977,2.0,9345,9.105090961257085,New
907180120,1588,214000.0,20,78.0,10264,,IR1,Lvl,AllPub,Inside,Gtl,CollgCr,Norm,Norm,1Fam,1Story,7,5,1999,1999,Gable,CompShg,VinylSd,VinylSd,BrkFace,183.0,Gd,TA,PConc,Gd,TA,Av,ALQ,1162.0,Unf,0.0,426.0,1588.0,GasA,Ex,Y,SBrkr,1588,0,0,0.0,0.0,2,0,3,1,Gd,6,Typ,0,,Attchd,1999.0,RFn,2.0,472.0,TA,TA,Y,158,29,0,0,0,0,,,,0,8,2006,WD ,Normal,5325 CERVANTES DR,42.01751131982996,-93.69065122622848,False,False,False,False,False,True,False,False,True,4,134.67589679043422,2.0,11116,9.236495329453033,Recent
911370410,1652,392500.0,120,64.0,5587,,IR1,HLS,AllPub,Inside,Mod,Crawfor,Norm,Norm,TwnhsE,1Story,8,5,2008,2008,Hip,CompShg,CemntBd,CmentBd,Stone,186.0,Ex,TA,PConc,Ex,TA,Gd,GLQ,1480.0,Unf,0.0,120.0,1600.0,GasA,Ex,Y,SBrkr,1652,0,0,1.0,1.0,2,0,2,1,Gd,5,Typ,1,Gd,Attchd,2008.0,Fin,2.0,482.0,TA,TA,Y,162,53,0,153,0,0,,,,0,11,2008,New,Partial,433 ASPEN RIDGE RD,42.00941067078177,-93.6155758230605,False,False,False,False,False,False,True,False,True,5,237.44706594071386,3.5,13216,8.628376720376853,New
527108090,2021,274725.0,60,168.0,23257,,IR3,HLS,AllPub,CulDSac,Gtl,Gilbert,Norm,Norm,1Fam,2Story,7,5,2006,2006,Gable,CompShg,VinylSd,VinylSd,,0.0,Gd,TA,PConc,Ex,Gd,No,Unf,0.0,Unf,0.0,868.0,868.0,GasA,Ex,Y,SBrkr,887,1134,0,0.0,0.0,2,1,3,1,Gd,9,Typ,1,Gd,BuiltIn,2006.0,RFn,2.0,422.0,TA,TA,Y,0,100,0,0,0,0,,,,0,9,2006,New,Partial,4316 HARRISON CIR,42.062991697905794,-93.63605879162316,False,False,False,False,False,True,False,False,True,4,135.8679525222552,2.5,14147,10.05440443785299,New
528222050,1412,156932.0,60,73.0,8499,,IR1,Lvl,AllPub,Inside,Gtl,Gilbert,Norm,Norm,1Fam,2Story,6,5,2006,2007,Gable,CompShg,VinylSd,VinylSd,,0.0,TA,TA,PConc,Gd,TA,No,Unf,0.0,Unf,0.0,616.0,616.0,GasA,Ex,Y,SBrkr,616,796,0,0.0,0.0,2,1,3,1,Gd,6,Typ,1,Gd,BuiltIn,2007.0,Fin,2.0,432.0,TA,TA,Y,0,36,0,0,0,0,,,,0,3,2007,New,Partial,4210 WELBECK DR,42.0622131258519,-93.64426567751812,False,False,False,False,False,True,False,False,True,3,111.06298655343241,2.5,8472,9.047821442478408,New
528429110,1464,282922.0,20,49.0,15256,,IR1,Lvl,AllPub,CulDSac,Gtl,Somerst,RRAn,Norm,1Fam,1Story,8,5,2007,2007,Gable,CompShg,VinylSd,VinylSd,Stone,84.0,Gd,TA,PConc,Gd,TA,Gd,GLQ,929.0,Unf,0.0,556.0,1485.0,GasA,Ex,Y,SBrkr,1464,0,0,1.0,0.0,2,0,3,1,Gd,6,Typ,0,,Attchd,2007.0,Unf,3.0,754.0,TA,TA,Y,168,160,0,0,0,0,,,,0,8,2007,WD ,Normal,2416 DALTON CIR,42.03481653077966,-93.64038801352564,False,False,False,False,False,True,False,False,True,4,193.120819112628,3.0,11712,9.632793693113202,New
902328100,1690,144000.0,75,65.0,8850,,IR1,Bnk,AllPub,Corner,Gtl,OldTown,Norm,Norm,1Fam,2.5Unf,7,6,1916,1950,Gable,CompShg,MetalSd,MetalSd,,0.0,TA,TA,BrkTil,TA,TA,No,Unf,0.0,Unf,0.0,815.0,815.0,GasA,Ex,Y,SBrkr,815,875,0,0.0,0.0,1,0,3,1,TA,7,Typ,1,Gd,Detchd,1916.0,Unf,1.0,225.0,TA,TA,Y,0,0,330,0,0,0,,,,0,7,2006,ConLw,Normal,704 BURNETT AVE,42.02806730612245,-93.61530573469388,False,False,False,False,False,False,True,False,True,3,85.15671200473093,1.0,11830,9.088285725968877,Old
527451410,1092,88000.0,160,21.0,1680,,Reg,Lvl,AllPub,Inside,Gtl,BrDale,Norm,Norm,Twnhs,2Story,6,5,1971,1971,Gable,CompShg,HdBoard,ImStucc,BrkFace,381.0,TA,TA,CBlock,TA,TA,No,Unf,0.0,Unf,0.0,525.0,525.0,GasA,TA,Y,SBrkr,525,567,0,0.0,0.0,1,1,3,1,TA,6,Typ,0,,Detchd,1971.0,Unf,1.0,264.0,TA,TA,Y,0,0,0,0,0,0,,,,0,3,2010,WD ,Family,1314 BARKLEY CT,42.05168394906352,-93.62743413389023,False,False,False,False,False,False,True,False,True,3,80.51235132662397,1.5,6552,7.427144133408616,Recent
531477050,1012,67500.0,30,70.0,9800,,Reg,Lvl,AllPub,Corner,Gtl,SawyerW,Feedr,Norm,1Fam,1Story,5,5,1920,1950,Gable,CompShg,Wd Sdng,Wd Sdng,,0.0,TA,Fa,BrkTil,TA,TA,No,Unf,0.0,Unf,0.0,816.0,816.0,GasA,TA,N,FuseA,1012,0,0,0.0,0.0,1,0,2,1,TA,5,Typ,0,,Detchd,1920.0,Unf,1.0,429.0,TA,TA,Y,121,0,80,0,0,0,,,,0,4,2010,WD ,Normal,,42.03481653077966,-93.64038801352564,False,False,False,False,True,False,False,False,True,3,66.63376110562685,1.0,5060,9.19023970026918,Old
914476130,1210,148000.0,80,140.0,11080,,Reg,Lvl,AllPub,Corner,Gtl,Mitchel,Norm,Norm,1Fam,SLvl,6,6,1975,1975,Gable,CompShg,Plywood,Plywood,BrkFace,257.0,TA,TA,CBlock,TA,TA,Av,GLQ,576.0,Unf,0.0,552.0,1128.0,GasA,TA,Y,SBrkr,1210,0,0,1.0,0.0,2,0,3,1,TA,6,Typ,0,,Attchd,1975.0,Unf,2.0,528.0,TA,TA,Y,0,0,0,0,0,0,,,,0,5,2006,WD ,Normal,3007 DIAMOND ST,41.9957645,-93.601227,False,False,False,False,False,True,False,False,True,3,122.2130470685384,3.0,7260,9.312987208936326,Recent
535453020,1256,159000.0,20,80.0,8000,,Reg,Lvl,AllPub,Inside,Gtl,NAmes,Norm,Norm,1Fam,1Story,5,6,1959,1959,Gable,CompShg,BrkFace,Wd Sdng,,0.0,TA,TA,PConc,TA,TA,No,BLQ,476.0,Rec,488.0,292.0,1256.0,GasA,Gd,Y,FuseA,1256,0,0,1.0,0.0,1,1,3,1,Gd,6,Typ,0,,Attchd,1959.0,RFn,1.0,311.0,TA,TA,Y,0,240,0,0,0,0,,,,0,5,2008,WD ,Normal,1523 GLENDALE AVE,42.03713342424243,-93.60600708080808,False,False,False,False,False,True,False,False,True,3,126.49164677804296,2.5,6280,8.987321812850125,Recent
535379100,1130,120000.0,30,60.0,10800,Grvl,Reg,Lvl,AllPub,Inside,Gtl,OldTown,Norm,Norm,1Fam,1Story,5,6,1920,1950,Hip,CompShg,Stucco,Stucco,,0.0,TA,TA,BrkTil,TA,TA,No,Rec,821.0,Unf,0.0,299.0,1120.0,GasA,Ex,Y,SBrkr,1130,0,0,1.0,0.0,1,0,2,1,TA,5,Typ,1,Gd,Detchd,1970.0,Unf,2.0,720.0,TA,TA,Y,229,0,0,0,0,0,,,,0,6,2006,WD ,Normal,1408 KELLOGG AVE,42.035903530612245,-93.61386526530612,False,False,False,False,False,True,False,False,True,3,106.10079575596816,2.0,5650,9.287394001418473,Old
905108190,858,134900.0,85,68.0,7252,,IR1,Lvl,AllPub,CulDSac,Gtl,Sawyer,Norm,Norm,1Fam,SFoyer,5,5,1982,1982,Hip,CompShg,Wd Sdng,Wd Sdng,,0.0,TA,TA,CBlock,Gd,TA,Av,GLQ,685.0,Unf,0.0,173.0,858.0,GasA,TA,Y,SBrkr,858,0,0,1.0,0.0,1,0,2,1,TA,5,Typ,0,,Detchd,1983.0,Unf,2.0,576.0,TA,TA,Y,120,0,0,0,0,0,,,,0,4,2009,WD ,Normal,934 MESA VERDE PL,42.03087976925107,-93.67154223074894,False,False,False,False,False,True,False,False,True,3,157.0430733410943,2.0,4290,8.889170455363413,Recent
905201110,1188,185000.0,20,88.0,14175,,Reg,Lvl,AllPub,Inside,Gtl,Sawyer,PosA,Norm,1Fam,1Story,6,8,1956,1956,Gable,CompShg,HdBoard,HdBoard,,0.0,TA,TA,CBlock,TA,Gd,Gd,GLQ,776.0,Unf,0.0,212.0,988.0,GasA,TA,Y,FuseA,1188,0,0,1.0,0.0,1,0,1,1,TA,4,Typ,1,TA,Attchd,1956.0,Unf,2.0,621.0,TA,TA,Y,102,89,231,0,0,0,,,,0,6,2008,WD ,Normal,1124 SCHOLL RD,42.032558897959184,-93.6653221632653,False,False,False,False,False,True,False,False,True,3,155.59293523969723,2.0,7128,9.559305672844863,Recent
903227090,1412,132500.0,50,50.0,6000,,Reg,Lvl,AllPub,Inside,Gtl,BrkSide,Norm,Norm,1Fam,1.5Fin,6,6,1939,1950,Gable,CompShg,MetalSd,MetalSd,,0.0,TA,Fa,CBlock,TA,TA,No,Unf,0.0,Unf,0.0,780.0,780.0,GasA,Ex,Y,FuseF,825,587,0,0.0,0.0,1,0,4,1,TA,6,Typ,1,Gd,Detchd,1939.0,Unf,1.0,280.0,TA,TA,Y,45,0,0,0,0,0,,,,0,5,2009,WD ,Normal,1206 MARSTON AVE,42.03345546938776,-93.62348414285714,False,False,False,False,False,False,True,False,True,3,93.7721160651097,1.0,8472,8.699681400989514,Old
905107300,1040,160500.0,80,68.0,7176,,IR1,Lvl,AllPub,CulDSac,Gtl,Sawyer,Norm,Norm,1Fam,SLvl,6,6,1978,1978,Gable,CompShg,HdBoard,HdBoard,BrkFace,200.0,TA,TA,CBlock,TA,Gd,Gd,GLQ,794.0,Unf,0.0,166.0,960.0,GasA,Fa,Y,SBrkr,1040,0,0,1.0,0.0,1,0,3,1,TA,6,Typ,1,Fa,Detchd,1979.0,Unf,2.0,616.0,TA,TA,Y,131,0,0,0,180,0,,GdPrv,,0,7,2006,WD ,Normal,3902 ARKANSAS DR,42.03134108089813,-93.6728131863958,False,False,False,False,False,True,False,False,True,3,154.17867435158502,2.0,6240,8.878636747430072,Recent
903401070,1376,165000.0,50,60.0,8850,Pave,Reg,Bnk,AllPub,Inside,Gtl,BrkSide,Norm,Norm,1Fam,1.5Fin,6,7,1920,1950,Gable,CompShg,Wd Sdng,Wd Shng,,0.0,TA,Gd,PConc,TA,TA,No,Unf,0.0,Unf,0.0,768.0,768.0,GasA,Ex,Y,SBrkr,752,624,0,0.0,0.0,1,0,3,1,Gd,7,Typ,0,,Detchd,1977.0,Unf,2.0,576.0,TA,TA,P,0,54,144,0,0,0,,,,0,2,2007,WD ,Normal,611 RIDGEWOOD AVE,42.02701343509556,-93.62547046323006,False,False,False,False,False,True,False,False,True,3,119.82570806100217,1.0,8256,9.088285725968877,Old
903230100,1301,100000.0,30,60.0,6911,,Reg,Lvl,AllPub,FR2,Gtl,BrkSide,Feedr,Norm,1Fam,1Story,5,5,1924,1950,Gable,CompShg,Wd Sdng,Wd Sdng,,0.0,TA,TA,PConc,TA,TA,Mn,LwQ,405.0,Unf,0.0,740.0,1145.0,GasA,TA,Y,SBrkr,1301,0,0,0.0,0.0,1,0,2,1,Fa,5,Min1,0,,Detchd,1965.0,Unf,2.0,440.0,TA,TA,Y,0,0,0,0,0,0,,,,0,10,2009,WD ,Normal,1015 CURTISS AVE,42.03150042455403,-93.62472727699644,False,False,False,False,False,False,True,False,True,3,76.80491551459293,1.0,6505,8.841014310483892,Old
527105010,1629,189900.0,60,74.0,13830,,IR1,Lvl,AllPub,Inside,Gtl,Gilbert,Norm,Norm,1Fam,2Story,5,5,1997,1998,Gable,CompShg,VinylSd,VinylSd,,0.0,TA,TA,PConc,Gd,TA,No,GLQ,791.0,Unf,0.0,137.0,928.0,GasA,Gd,Y,SBrkr,928,701,0,0.0,0.0,2,1,3,1,TA,6,Typ,1,TA,Attchd,1997.0,Fin,2.0,482.0,TA,TA,Y,212,34,0,0,0,0,,MnPrv,,0,3,2010,WD ,Normal,4025 BERKSHIRE AVE,42.06086624608271,-93.6389765770365,False,False,False,False,False,True,False,False,True,3,116.50306748466258,2.5,8145,9.534667728624708,Recent
528480020,1761,227875.0,60,84.0,10207,,Reg,Lvl,AllPub,Inside,Gtl,Somerst,Norm,Norm,1Fam,2Story,7,6,2007,2007,Gable,CompShg,VinylSd,VinylSd,,0.0,Gd,TA,PConc,Gd,TA,No,Unf,0.0,Unf,0.0,874.0,874.0,GasA,Ex,Y,SBrkr,874,887,0,0.0,0.0,3,0,3,1,Gd,7,Typ,0,,Attchd,2007.0,Fin,2.0,578.0,TA,TA,Y,144,105,0,0,0,0,,,,0,8,2007,New,Partial,2616 KINGSTON DR,42.052132986853664,-93.64365631551216,False,False,True,False,False,False,False,False,True,4,129.32746878547107,3.0,12327,9.23092700558457,New
527402130,936,111900.0,20,68.0,10295,,Reg,Lvl,AllPub,FR2,Gtl,NAmes,Norm,Norm,1Fam,1Story,4,6,1969,1969,Gable,CompShg,HdBoard,HdBoard,BrkFace,72.0,TA,TA,CBlock,Gd,TA,Mn,Rec,252.0,Unf,0.0,684.0,936.0,GasA,TA,Y,SBrkr,936,0,0,0.0,0.0,1,0,2,1,TA,4,Typ,0,,Attchd,1969.0,Unf,1.0,288.0,TA,TA,Y,16,0,0,0,0,0,,,,0,9,2008,COD,Normal,1217 JEFFERSON ST,42.05536916392078,-93.6266190612291,False,False,False,False,False,True,False,False,True,3,119.42369263607257,1.0,3744,9.239510749275963,Recent
909251080,1316,145000.0,70,66.0,8969,,Reg,Bnk,AllPub,Inside,Gtl,Crawfor,Norm,Norm,1Fam,2Story,6,6,1926,1950,Gambrel,CompShg,Wd Sdng,Wd Sdng,,0.0,TA,TA,BrkTil,TA,TA,No,BLQ,379.0,Unf,0.0,265.0,644.0,GasA,Ex,Y,SBrkr,672,644,0,1.0,0.0,1,0,2,1,TA,6,Typ,1,Gd,Detchd,2001.0,Unf,1.0,369.0,TA,TA,P,0,0,0,0,192,0,,MnPrv,,0,7,2008,WD ,Normal,507 LYNN AVE,42.01780281632653,-93.64647512244898,False,False,False,False,False,True,False,False,True,3,110.09870918754746,2.0,7896,9.101640955052842,Old
908201120,1440,118000.0,90,92.0,12108,,Reg,Lvl,AllPub,Inside,Gtl,Edwards,Norm,Norm,Duplex,1Story,4,4,1955,1955,Gable,CompShg,VinylSd,VinylSd,BrkFace,270.0,TA,TA,CBlock,TA,TA,No,ALQ,133.0,Unf,0.0,1307.0,1440.0,GasA,TA,N,FuseF,1440,0,0,0.0,0.0,2,0,4,2,Fa,8,Typ,0,,,1978.0,,0.0,0.0,,,Y,0,0,0,0,0,0,,,,0,9,2008,WD ,Normal,3411 TRIPP ST 3413,42.0203107,-93.665322,False,False,False,False,False,True,False,False,True,3,81.88757807078417,2.0,5760,9.401704256754366,Recent
533221080,1524,166000.0,160,68.0,2998,,Reg,Lvl,AllPub,Inside,Gtl,Somerst,Norm,Norm,TwnhsE,2Story,6,5,2000,2000,Gable,CompShg,MetalSd,MetalSd,BrkFace,513.0,Gd,TA,PConc,Gd,TA,No,GLQ,353.0,Unf,0.0,403.0,756.0,GasA,Ex,Y,SBrkr,768,756,0,0.0,0.0,2,1,2,1,Gd,4,Typ,0,,Detchd,2000.0,Unf,2.0,440.0,TA,TA,Y,0,32,0,0,0,0,,,,0,6,2006,WD ,Normal,2713 HAMPTON ST,42.04615068202805,-93.64578297226852,False,False,True,False,False,False,False,False,True,4,108.85245901639344,2.5,9144,8.00603417874901,Recent
535178100,1370,148000.0,80,125.0,10000,,Reg,Lvl,AllPub,Corner,Gtl,NAmes,Norm,Norm,1Fam,SLvl,5,6,1956,1956,Hip,CompShg,Wd Sdng,Wd Sdng,BrkFace,272.0,TA,TA,CBlock,TA,TA,Av,BLQ,678.0,Rec,281.0,99.0,1058.0,GasA,Ex,Y,SBrkr,1370,0,0,1.0,0.0,1,0,3,1,TA,6,Typ,1,TA,Basment,1956.0,RFn,1.0,300.0,TA,TA,Y,191,0,0,0,120,0,,MnPrv,,0,2,2006,WD ,Normal,2004 BURNETT AVE,42.04222355411135,-93.61584551930623,False,False,False,False,False,True,False,False,True,3,107.95040116703136,2.0,6850,9.210440366976517,Recent
535457050,925,99000.0,20,70.0,7000,,Reg,Lvl,AllPub,Corner,Gtl,NAmes,Feedr,Norm,1Fam,1Story,5,6,1961,1961,Gable,CompShg,BrkFace,Wd Sdng,,0.0,TA,TA,Slab,,,,,0.0,,0.0,0.0,0.0,GasA,Gd,Y,SBrkr,925,0,0,0.0,0.0,1,0,3,1,TA,7,Typ,0,,Attchd,1961.0,Fin,1.0,300.0,TA,TA,Y,0,0,0,0,0,0,,,,0,7,2007,WD ,Normal,1302 MAXWELL AVE,42.03468289795919,-93.60670769387757,False,False,False,False,False,True,False,False,True,3,106.91144708423326,1.0,4625,8.853808274977197,Recent
923226270,630,86000.0,180,21.0,1526,,Reg,Lvl,AllPub,Inside,Gtl,MeadowV,Norm,Norm,Twnhs,SFoyer,4,8,1970,2002,Gable,CompShg,CemntBd,CmentBd,,0.0,TA,Gd,CBlock,Gd,TA,Av,GLQ,515.0,Unf,0.0,115.0,630.0,GasA,TA,Y,SBrkr,630,0,0,1.0,0.0,1,0,1,1,Gd,3,Typ,0,,Attchd,1970.0,Unf,1.0,286.0,TA,TA,Y,0,0,0,0,0,0,,,,0,5,2009,WD ,Normal,615 MEADOW PL,41.992332618748165,-93.60312324722656,False,False,False,False,False,False,True,False,True,3,136.2916006339144,2.0,2520,7.3310603052186325,Recent
535105090,1431,165000.0,80,101.0,9150,,IR1,Lvl,AllPub,Corner,Gtl,NAmes,Norm,Norm,1Fam,SLvl,6,5,1962,1962,Gable,Tar&Grv,Plywood,Plywood,BrkFace,305.0,TA,TA,CBlock,Gd,TA,Gd,GLQ,371.0,Unf,0.0,728.0,1099.0,GasA,Gd,Y,SBrkr,1431,0,0,0.0,1.0,1,0,3,1,TA,6,Typ,1,Gd,Basment,1962.0,RFn,1.0,296.0,TA,TA,Y,64,110,0,0,0,0,,,,0,12,2008,WD ,Normal,2527 KELLOGG AVE,42.046992315952615,-93.61572734636202,False,False,False,False,False,True,False,False,True,3,115.22346368715084,1.5,8586,9.121618441915379,Recent
533253070,1226,211500.0,120,61.0,3782,,IR1,Lvl,AllPub,CulDSac,Gtl,Greens,Norm,Norm,TwnhsE,1Story,8,5,1981,1981,Gable,CompShg,Wd Sdng,Plywood,,0.0,Gd,TA,CBlock,Gd,TA,Gd,GLQ,960.0,Unf,0.0,266.0,1226.0,GasA,TA,Y,SBrkr,1226,0,0,1.0,0.0,1,0,1,1,Gd,4,Typ,2,TA,Attchd,1981.0,Fin,2.0,484.0,TA,TA,Y,133,78,0,0,0,0,,,,0,9,2009,WD ,Normal,2024 PINEHURST DR,42.04299352441229,-93.64930425966442,False,False,False,False,False,True,False,False,True,4,172.37163814180929,2.0,9808,8.23827262463303,Recent
907280170,1417,210000.0,20,70.0,8750,,Reg,Lvl,AllPub,Inside,Gtl,CollgCr,Norm,Norm,1Fam,1Story,7,5,1997,1998,Gable,CompShg,VinylSd,VinylSd,BrkFace,209.0,Gd,TA,PConc,Gd,TA,Av,GLQ,1111.0,Unf,0.0,306.0,1417.0,GasA,Ex,Y,SBrkr,1417,0,0,1.0,0.0,2,0,3,1,Gd,7,Typ,1,TA,Attchd,1997.0,Unf,2.0,511.0,TA,TA,Y,60,0,0,0,117,0,,,,0,8,2009,WD ,Normal,4619 CLEMENS BLVD,42.018014,-93.6813538557042,False,False,False,False,False,True,False,False,True,4,148.09590973201693,3.0,9919,9.076923258535832,Recent
914476450,1689,228500.0,20,74.0,9990,,Reg,Lvl,AllPub,Inside,Gtl,Mitchel,Norm,Norm,1Fam,1Story,4,5,1991,1991,Gable,CompShg,HdBoard,HdBoard,,0.0,TA,TA,PConc,Gd,TA,No,ALQ,1383.0,Unf,0.0,297.0,1680.0,GasA,Gd,Y,SBrkr,1689,0,0,1.0,0.0,2,0,3,1,TA,6,Typ,1,TA,Attchd,1991.0,Unf,2.0,432.0,TA,TA,Y,428,120,0,0,0,0,,,,0,7,2008,WD ,Normal,703 ONYX ST,41.996073,-93.602595,False,False,False,False,False,True,False,False,True,3,135.20710059171597,3.0,6756,9.209439966733019,Recent
535327200,928,132000.0,20,70.0,13300,,Reg,Lvl,AllPub,Inside,Gtl,NAmes,Norm,Norm,1Fam,1Story,5,7,1956,2000,Hip,CompShg,Wd Sdng,Wd Sdng,,0.0,TA,TA,CBlock,Gd,TA,No,Rec,377.0,Unf,0.0,551.0,928.0,GasA,TA,Y,SBrkr,928,0,0,0.0,0.0,1,0,2,1,TA,4,Typ,0,,Attchd,1956.0,Unf,1.0,252.0,TA,TA,Y,261,0,156,0,0,0,,,,0,6,2007,WD ,Normal,1624 DOUGLAS AVE,42.038608571428576,-93.61221769387755,False,False,False,False,False,True,False,False,True,3,142.08826695371366,1.0,4640,9.495594499353297,Recent
528441090,2490,437780.1199999994,20,85.0,11128,,Reg,Lvl,AllPub,Corner,Gtl,Somerst,PosN,PosN,1Fam,1Story,9,5,2005,2006,Hip,CompShg,VinylSd,VinylSd,Stone,198.0,Ex,TA,PConc,Ex,TA,Gd,GLQ,2158.0,Unf,0.0,300.0,2458.0,GasA,Ex,Y,SBrkr,2490,0,0,1.0,0.0,2,0,2,1,Ex,9,Typ,2,Gd,Attchd,2005.0,Fin,3.0,795.0,TA,TA,Y,70,226,0,0,0,0,,GdPrv,,0,10,2009,WD ,Normal,2426 YORKSHIRE CIR,42.05310115636974,-93.64139716702556,False,False,False,False,False,True,False,False,True,5,175.74472902448792,3.0,22410,9.317309592973425,New
906426195,1953,240000.0,60,68.0,53107,,IR2,Low,AllPub,Corner,Mod,ClearCr,Feedr,Norm,1Fam,2Story,6,5,1992,1992,Gable,CompShg,HdBoard,HdBoard,,0.0,Gd,TA,PConc,Gd,TA,Av,GLQ,985.0,Unf,0.0,595.0,1580.0,GasA,Ex,Y,SBrkr,1079,874,0,1.0,0.0,2,1,3,1,Gd,9,Typ,2,Fa,Attchd,1992.0,Fin,2.0,501.0,TA,TA,Y,216,231,0,0,0,0,,,,0,6,2007,WD ,Normal,601 CHELSEA CT,42.027877,-93.67912,False,False,False,False,False,True,False,False,True,4,122.82497441146367,3.5,11718,10.880082855015793,Recent
534275170,958,151500.0,20,68.0,12772,,IR1,Lvl,AllPub,CulDSac,Gtl,NAmes,Norm,Norm,1Fam,1Story,6,8,1960,1998,Hip,CompShg,MetalSd,MetalSd,,0.0,TA,Gd,CBlock,TA,TA,Mn,BLQ,498.0,Unf,0.0,460.0,958.0,GasA,TA,Y,SBrkr,958,0,0,0.0,0.0,1,0,2,1,TA,5,Typ,0,,Attchd,1960.0,RFn,1.0,301.0,TA,TA,Y,0,0,0,0,0,0,,,Gar2,15500,4,2007,WD ,Normal,2009 ROOSEVELT CIR,42.04216255555556,-93.62367055555556,False,False,False,False,False,True,False,False,True,3,157.97705943691346,1.0,5748,9.455088847042777,Recent
923226180,630,73000.0,180,21.0,1470,,Reg,Lvl,AllPub,Inside,Gtl,MeadowV,Norm,Norm,Twnhs,SFoyer,4,6,1970,1970,Gable,CompShg,CemntBd,CmentBd,,0.0,TA,TA,CBlock,Gd,TA,Av,GLQ,522.0,Unf,0.0,108.0,630.0,GasA,TA,Y,SBrkr,630,0,0,1.0,0.0,1,0,1,1,TA,3,Typ,0,,,1978.0,,0.0,0.0,,,Y,0,0,0,0,0,0,,,,0,4,2006,WD ,Normal,633 MEADOW PL,41.99253552569278,-93.60262134872586,False,False,False,False,False,False,True,False,True,3,115.68938193343898,2.0,2520,7.293697720601438,Recent
923226320,630,75500.0,180,21.0,1491,,Reg,Lvl,AllPub,Inside,Gtl,MeadowV,Norm,Norm,TwnhsE,SFoyer,4,6,1972,1972,Gable,CompShg,CemntBd,CmentBd,,0.0,TA,TA,CBlock,Gd,TA,Av,LwQ,150.0,GLQ,480.0,0.0,630.0,GasA,Ex,Y,SBrkr,630,0,0,1.0,0.0,1,0,1,1,TA,3,Typ,0,,,1978.0,,0.0,0.0,,,Y,96,24,0,0,0,0,,,,0,5,2010,WD ,Normal,605 MEADOW PL,41.992212332620966,-93.60339916510804,False,False,False,False,False,False,True,False,True,3,119.6513470681458,2.0,2520,7.307872780763706,Recent
528118050,2290,437780.1199999994,20,59.0,17169,,IR2,Lvl,AllPub,CulDSac,Gtl,NridgHt,Norm,Norm,1Fam,1Story,10,5,2007,2007,Hip,CompShg,CemntBd,CmentBd,BrkFace,970.0,Ex,TA,PConc,Ex,TA,Av,GLQ,1684.0,Unf,0.0,636.0,2320.0,GasA,Ex,Y,SBrkr,2290,0,0,2.0,0.0,2,1,2,1,Ex,7,Typ,1,Gd,Attchd,2007.0,Fin,3.0,1174.0,TA,TA,Y,192,30,0,0,0,0,,,,0,8,2007,New,Partial,3305 PRESTON CIR,42.06042720408163,-93.65744926530613,False,False,False,False,False,True,False,False,True,5,191.0869140113485,4.5,22900,9.75091895389152,New
916253320,1502,330000.0,120,68.0,9763,,IR1,Lvl,AllPub,Inside,Gtl,GrnHill,Norm,Norm,TwnhsE,1Story,7,5,1998,1998,Gable,CompShg,Wd Sdng,Wd Sdng,BrkFace,239.0,Gd,TA,PConc,Gd,TA,No,GLQ,1102.0,ALQ,72.0,328.0,1502.0,GasA,Ex,Y,SBrkr,1502,0,0,1.0,0.0,1,1,1,1,Gd,5,Typ,1,TA,Attchd,1998.0,Fin,1.0,286.0,TA,TA,Y,0,0,0,0,0,0,,,,0,9,2007,WD ,Normal,,42.03481653077966,-93.64038801352564,False,False,False,False,False,False,True,False,True,4,219.56087824351297,2.5,10514,9.186457431512851,Recent
904300150,1224,107500.0,50,72.0,10632,,IR1,Lvl,AllPub,Inside,Gtl,ClearCr,Norm,Norm,1Fam,1.5Fin,5,3,1917,1950,Gable,CompShg,Wd Sdng,Wd Sdng,,0.0,TA,TA,BrkTil,Gd,Fa,No,Unf,0.0,Unf,0.0,689.0,689.0,GasA,Gd,N,SBrkr,725,499,0,0.0,0.0,1,1,3,1,Po,6,Mod,0,,Detchd,1917.0,Unf,1.0,180.0,Fa,Fa,N,0,0,248,0,0,0,,,,0,1,2010,COD,Normal,3021 OAKLAND ST,42.02828955914435,-93.65878627384562,False,False,False,False,False,True,False,False,True,3,87.75510204081633,1.5,6120,9.271717651651086,Old
533236050,1739,172500.0,160,24.0,2645,Pave,Reg,Lvl,AllPub,Inside,Gtl,Somerst,Norm,Norm,Twnhs,2Story,8,5,1999,2000,Gable,CompShg,MetalSd,MetalSd,BrkFace,456.0,Gd,TA,PConc,Gd,TA,No,GLQ,649.0,Unf,0.0,321.0,970.0,GasA,Ex,Y,SBrkr,983,756,0,1.0,0.0,2,1,3,1,Gd,7,Typ,0,,Attchd,1999.0,Fin,2.0,480.0,TA,TA,Y,115,0,0,0,0,0,,,,0,8,2009,WD ,Abnorml,2510 BRISTOL DR,42.04715891357376,-93.64181224655658,False,False,True,False,False,False,False,False,True,4,99.13793103448276,3.5,13912,7.880804344674901,Recent
527354160,2044,185000.0,60,80.0,10400,,Reg,Lvl,AllPub,Inside,Gtl,NWAmes,Norm,Norm,1Fam,2Story,7,6,1980,1988,Gable,CompShg,HdBoard,HdBoard,BrkFace,280.0,TA,TA,CBlock,Gd,TA,Mn,Unf,0.0,Unf,0.0,738.0,738.0,GasA,TA,Y,SBrkr,1277,767,0,0.0,0.0,2,1,3,1,TA,7,Min1,1,TA,Attchd,1980.0,Unf,2.0,489.0,TA,TA,Y,28,73,0,0,0,0,,,,0,3,2008,WD ,Normal,2009 STEVENSON DR,42.0525554028463,-93.6355961810786,False,False,False,False,False,True,False,False,True,3,90.46454767726162,2.5,14308,9.249657234353133,Recent
528435040,1726,311872.0,20,79.0,9416,,Reg,Lvl,AllPub,Inside,Gtl,Somerst,Norm,Norm,1Fam,1Story,7,5,2007,2007,Hip,CompShg,CemntBd,CmentBd,Stone,205.0,Ex,TA,PConc,Ex,TA,No,GLQ,1126.0,Unf,0.0,600.0,1726.0,GasA,Ex,Y,SBrkr,1726,0,0,1.0,0.0,2,0,3,1,Ex,8,Typ,1,Gd,Attchd,2007.0,Fin,3.0,786.0,TA,TA,Y,171,138,0,0,266,0,,,,0,9,2007,New,Partial,2604 DALTON ST,42.054149095181536,-93.64371993188,False,False,False,False,False,True,False,False,True,5,180.5859872611465,3.0,12082,9.150271845510064,New
534129230,1790,165150.0,60,80.0,10400,,Reg,Lvl,AllPub,Inside,Gtl,NWAmes,Norm,Norm,1Fam,2Story,6,5,1972,1972,Gable,CompShg,VinylSd,VinylSd,,288.0,TA,TA,CBlock,TA,TA,No,Rec,247.0,Unf,0.0,485.0,732.0,GasA,Gd,Y,SBrkr,1012,778,0,1.0,0.0,1,2,4,1,TA,8,Min2,1,TA,Attchd,1972.0,RFn,2.0,484.0,TA,TA,Y,148,0,0,0,147,0,,,,0,11,2006,WD ,Normal,2705 HOOVER AVE,42.04817947474747,-93.630294,False,False,False,False,False,True,False,False,True,3,92.21105527638191,3.0,10740,9.249657234353133,Recent
535325350,1056,125000.0,20,80.0,13600,,Reg,Bnk,AllPub,Inside,Gtl,NAmes,Norm,Norm,1Fam,1Story,5,6,1955,1955,Gable,CompShg,HdBoard,HdBoard,,0.0,TA,TA,CBlock,TA,TA,No,Rec,144.0,BLQ,912.0,0.0,1056.0,GasA,Gd,Y,SBrkr,1056,0,0,1.0,0.0,1,1,3,1,TA,6,Typ,0,,Attchd,1955.0,Fin,1.0,300.0,TA,TA,Y,0,0,0,0,0,0,,MnPrv,Shed,650,11,2006,WD ,Normal,225 16TH ST,42.038378,-93.61280176470588,False,False,False,False,False,True,False,False,True,3,118.25922421948913,2.5,5280,9.517898598432753,Recent
902408080,2554,159500.0,70,60.0,10800,Grvl,Reg,Bnk,AllPub,Inside,Gtl,OldTown,Norm,Norm,1Fam,2Story,7,8,1890,1998,Gable,CompShg,Wd Sdng,VinylSd,,0.0,TA,Gd,BrkTil,TA,TA,No,Unf,0.0,Unf,0.0,718.0,718.0,GasA,Ex,Y,SBrkr,1576,978,0,0.0,0.0,1,1,3,1,TA,8,Typ,0,,Detchd,1996.0,Unf,2.0,704.0,TA,TA,P,0,48,143,0,0,0,,,,0,7,2007,WD ,Normal,508 CARROLL AVE,42.02619203943843,-93.60864389206752,False,False,False,False,False,False,True,False,True,3,62.426614481409004,1.5,17878,9.287394001418473,Old
916455050,1312,180500.0,20,68.0,6718,,IR1,Lvl,AllPub,Inside,Gtl,Timber,Norm,Norm,1Fam,1Story,8,5,2001,2001,Gable,CompShg,VinylSd,VinylSd,BrkFace,86.0,Gd,TA,PConc,Ex,TA,Mn,GLQ,250.0,Unf,0.0,1017.0,1267.0,GasA,Ex,Y,SBrkr,1312,0,0,0.0,0.0,2,0,2,1,Gd,5,Typ,0,,Attchd,2001.0,Unf,2.0,471.0,TA,TA,Y,256,28,0,0,0,0,,,,0,1,2007,WD ,Normal,2829 WHITE OAK DR,41.99703640663635,-93.64683644623204,False,False,False,False,False,True,False,False,True,4,137.47143945163748,2.0,10496,8.81269461292015,New
909276200,1308,160000.0,50,130.0,9600,,IR1,HLS,AllPub,Inside,Gtl,Crawfor,Norm,Norm,1Fam,1.5Fin,5,7,1940,1950,Gable,CompShg,MetalSd,MetalSd,,0.0,Gd,Gd,BrkTil,TA,Fa,No,Rec,428.0,Unf,0.0,300.0,728.0,GasA,Ex,Y,SBrkr,976,332,0,1.0,0.0,1,1,2,1,TA,7,Min2,2,TA,Detchd,1940.0,Unf,1.0,256.0,TA,TA,Y,0,70,0,0,0,0,,,,0,6,2009,WD ,Normal,418 PEARSON AVE,42.01867749991436,-93.64234020531468,False,False,False,False,False,True,False,False,True,4,122.23071046600458,2.5,6540,9.169622538697624,Old
534277060,907,109008.0,20,77.0,8593,,IR1,Lvl,AllPub,Inside,Gtl,NAmes,Norm,Norm,1Fam,1Story,4,6,1957,1957,Hip,CompShg,MetalSd,MetalSd,,0.0,TA,TA,CBlock,TA,TA,No,Rec,288.0,Unf,0.0,619.0,907.0,GasA,Ex,Y,SBrkr,907,0,0,0.0,0.0,1,0,3,1,TA,5,Typ,0,,Detchd,1964.0,Unf,1.0,352.0,TA,TA,Y,0,0,0,0,0,0,,,,0,7,2008,WD ,Normal,2125 FURMAN DR,42.044865,-93.621618,False,False,False,False,False,True,False,False,True,3,120.05286343612335,1.0,3628,9.058819564334941,Recent
905107280,1034,153000.0,85,68.0,7703,,IR1,Lvl,AllPub,CulDSac,Gtl,Sawyer,Norm,Norm,1Fam,SFoyer,6,8,1978,1978,Gable,CompShg,HdBoard,HdBoard,BrkCmn,40.0,TA,TA,CBlock,Gd,TA,Gd,ALQ,450.0,Unf,0.0,0.0,450.0,GasA,Ex,Y,SBrkr,1034,0,0,0.0,1.0,1,0,3,1,TA,6,Typ,1,Po,Basment,1978.0,Fin,2.0,504.0,TA,TA,Y,311,0,0,0,0,0,,GdWo,,0,5,2008,WD ,Normal,3914 ARKANSAS DR,42.03134156628693,-93.67289230477073,False,False,False,False,False,True,False,False,True,3,147.82608695652175,1.5,6204,8.949494953477961,Recent
923204050,1040,132250.0,20,94.0,25286,,Reg,HLS,AllPub,Inside,Mod,Mitchel,Norm,Norm,1Fam,1Story,4,5,1963,1963,Gable,CompShg,HdBoard,Plywood,,0.0,TA,TA,PConc,TA,TA,Gd,ALQ,633.0,Unf,0.0,431.0,1064.0,GasA,Gd,Y,SBrkr,1040,0,0,1.0,0.0,1,0,3,1,TA,5,Typ,0,,Attchd,1963.0,Unf,2.0,648.0,TA,TA,Y,0,0,0,0,0,0,,,,0,1,2007,WD ,Normal,3309 SOUTHDALE DR,41.99297998782015,-93.6055428854154,False,False,False,False,False,True,False,False,True,3,127.04130643611911,2.0,4160,10.138045708665592,Recent
531376050,1585,184900.0,60,74.0,7632,,IR1,Lvl,AllPub,Inside,Gtl,SawyerW,Norm,Norm,1Fam,2Story,7,5,2005,2005,Gable,CompShg,VinylSd,VinylSd,BrkFace,96.0,Gd,TA,PConc,Gd,TA,No,Unf,0.0,Unf,0.0,784.0,784.0,GasA,Ex,Y,SBrkr,831,754,0,0.0,0.0,2,1,3,1,Gd,7,Typ,0,,Attchd,2005.0,RFn,2.0,449.0,TA,TA,Y,100,77,0,0,0,0,,,,0,3,2006,WD ,Normal,1508 CALIFORNIA AVE,42.03713731403104,-93.69121340618791,False,False,False,False,False,True,False,False,True,4,116.58259773013872,2.5,11095,8.94023623179847,New
903454010,1355,127000.0,70,60.0,6882,,Reg,Lvl,AllPub,Inside,Gtl,IDOTRR,Norm,Norm,1Fam,2Story,6,7,1914,2006,Gable,CompShg,Wd Sdng,Wd Sdng,,0.0,TA,TA,PConc,TA,TA,No,Unf,0.0,Unf,0.0,684.0,684.0,GasA,TA,Y,SBrkr,773,582,0,0.0,0.0,1,1,3,1,Gd,7,Typ,0,,,1978.0,,0.0,0.0,,,Y,136,0,115,0,0,0,,,,0,3,2007,WD ,Normal,1218 N 3RD ST,42.02510548979591,-93.62720573469387,False,False,False,False,False,False,True,False,True,3,93.65781710914455,1.5,8130,8.836809882398365,Old
906412010,2276,437780.1199999994,20,91.0,11778,,Reg,Lvl,AllPub,Inside,Gtl,CollgCr,Norm,Norm,1Fam,1Story,9,5,2008,2008,Hip,CompShg,VinylSd,VinylSd,Stone,554.0,Gd,TA,PConc,Gd,TA,Gd,GLQ,2085.0,Unf,0.0,186.0,2271.0,GasA,Ex,Y,SBrkr,2276,0,0,1.0,0.0,2,0,3,1,Ex,7,Typ,2,Gd,Attchd,2008.0,RFn,3.0,1348.0,Gd,TA,Y,0,0,70,0,255,0,,,,0,6,2008,WD ,Abnorml,532 WESTFIELD RD,42.02721361270797,-93.68678307886384,False,False,False,False,False,True,False,False,True,4,192.26180061484382,3.0,20484,9.374073563958785,New
535301060,1154,142000.0,20,60.0,11556,,Reg,Lvl,AllPub,Inside,Gtl,NAmes,Norm,Norm,1Fam,1Story,5,9,1953,2006,Gable,CompShg,VinylSd,MetalSd,,0.0,TA,Ex,CBlock,TA,TA,No,BLQ,408.0,Unf,0.0,456.0,864.0,GasA,Gd,Y,SBrkr,1154,0,0,0.0,0.0,1,1,3,1,Ex,6,Typ,0,,Detchd,1962.0,Unf,1.0,336.0,TA,TA,Y,63,0,0,0,0,0,,,,0,7,2007,WD ,Normal,1907 CLARK AVE,42.041233315036166,-93.61727799531305,False,False,False,False,False,True,False,False,True,3,122.94372294372295,1.5,5770,9.355046592975441,Recent
534453080,808,112000.0,20,50.0,5175,,Reg,Lvl,AllPub,Inside,Gtl,BrkSide,RRAn,Feedr,1Fam,1Story,5,8,1958,2000,Gable,CompShg,VinylSd,VinylSd,,0.0,TA,TA,CBlock,TA,TA,No,BLQ,150.0,ALQ,404.0,254.0,808.0,GasA,Ex,Y,SBrkr,808,0,0,0.0,0.0,1,0,2,1,TA,5,Typ,0,,Detchd,1963.0,Unf,1.0,308.0,TA,TA,N,143,0,0,0,0,0,,,,0,7,2007,COD,Normal,1430 RIDGEWOOD AVE,42.03602586446804,-93.62847008877344,False,False,False,False,False,True,False,False,True,3,138.442521631644,1.0,4040,8.551787836180736,Recent
911102180,1049,80900.0,50,52.0,5150,,Reg,Lvl,AllPub,Corner,Gtl,IDOTRR,Feedr,Norm,1Fam,1.5Fin,4,7,1910,2000,Gable,CompShg,Plywood,Plywood,,0.0,TA,TA,PConc,Po,TA,No,Unf,0.0,Unf,0.0,356.0,356.0,GasA,TA,N,FuseA,671,378,0,0.0,0.0,1,0,2,1,TA,5,Typ,0,,Detchd,1910.0,Unf,1.0,195.0,Po,Fa,N,0,0,0,0,0,0,,,,0,5,2008,WD ,Normal,202 S WALNUT AVE,42.02147665741722,-93.6168112727172,False,True,False,False,False,False,False,False,True,3,77.04761904761905,1.0,4196,8.546946149565585,Old
535403210,1105,135000.0,20,90.0,10454,,IR1,Lvl,AllPub,Corner,Gtl,NAmes,Norm,Norm,1Fam,1Story,6,6,1957,1957,Hip,CompShg,Plywood,Plywood,Stone,143.0,TA,TA,CBlock,TA,TA,No,Rec,546.0,Unf,0.0,559.0,1105.0,GasA,Gd,Y,FuseA,1105,0,0,0.0,0.0,1,0,3,1,TA,5,Typ,0,,Detchd,1957.0,Unf,1.0,308.0,TA,TA,Y,0,0,0,0,0,0,,,,0,4,2009,WD ,Normal,1604 CARROLL AVE,42.038482504829126,-93.60890513399804,False,False,False,False,False,True,False,False,True,3,122.0614828209765,1.0,6630,9.254835611862735,Recent
531382120,1679,193500.0,20,65.0,8125,,Reg,Lvl,AllPub,Inside,Gtl,SawyerW,Norm,Norm,1Fam,1Story,6,5,1994,1998,Gable,CompShg,HdBoard,HdBoard,BrkFace,258.0,TA,TA,PConc,Gd,TA,No,GLQ,1138.0,Unf,0.0,270.0,1408.0,GasA,Ex,Y,SBrkr,1679,0,0,1.0,0.0,2,0,3,1,Gd,7,Typ,1,Fa,Attchd,1994.0,RFn,2.0,575.0,TA,TA,Y,224,42,0,0,0,0,,,,0,10,2008,WD ,Normal,5214 MARYLAND ST,42.03586988976251,-93.68915891193907,False,False,False,False,False,True,False,False,True,3,115.17857142857143,3.0,10074,9.002824076547672,Recent
916455120,1440,232500.0,20,82.0,11202,,IR1,Lvl,AllPub,Inside,Gtl,Timber,Norm,Norm,1Fam,1Story,8,5,2003,2003,Hip,CompShg,VinylSd,VinylSd,BrkFace,206.0,Gd,TA,PConc,Ex,TA,Av,GLQ,1029.0,Unf,0.0,403.0,1432.0,GasA,Ex,Y,SBrkr,1440,0,0,1.0,0.0,2,0,3,1,Gd,7,Typ,1,TA,Attchd,2003.0,Fin,2.0,467.0,TA,TA,Y,185,95,0,0,0,0,,,,0,6,2008,WD ,Normal,2311 SUNCREST DR,41.99551603030303,-93.6469074949495,False,False,False,False,False,True,False,False,True,4,161.34628730048578,3.0,11520,9.323936878558722,New
905475510,1298,114000.0,20,68.0,11200,,IR1,Lvl,AllPub,CulDSac,Gtl,Edwards,Norm,Norm,1Fam,1Story,5,3,1964,1964,Gable,CompShg,Wd Sdng,Wd Sdng,,0.0,TA,Fa,CBlock,TA,TA,Mn,Unf,0.0,Unf,0.0,1250.0,1250.0,GasA,Ex,Y,SBrkr,1298,0,0,0.0,0.0,2,0,3,1,TA,5,Typ,0,,Detchd,1964.0,Unf,2.0,504.0,TA,Fa,N,0,144,0,0,0,0,,,,0,6,2010,COD,Normal,310 COLORADO CIR,42.02508273469388,-93.6633366122449,False,False,False,False,False,True,False,False,True,3,87.75981524249423,2.0,6490,9.32375833901174,Recent
916326090,2279,257000.0,20,149.0,19958,,Reg,Lvl,AllPub,Inside,Gtl,Timber,Norm,Norm,1Fam,1Story,6,8,1958,1995,Hip,CompShg,HdBoard,HdBoard,BrkFace,1224.0,TA,Gd,CBlock,TA,TA,No,Unf,0.0,Unf,0.0,585.0,585.0,GasA,Gd,Y,SBrkr,2279,0,0,0.0,0.0,2,1,4,1,Gd,7,Typ,1,Gd,Attchd,1958.0,RFn,2.0,461.0,TA,TA,Y,274,0,0,0,138,0,,GdPrv,,0,7,2007,WD ,Normal,2320 TIMBERLAND RD,42.00072925266047,-93.64966625676163,False,False,False,False,False,True,False,False,True,3,112.71929824561404,2.5,13674,9.901435448409996,Recent
909101140,1604,117000.0,50,60.0,10998,Grvl,Reg,Lvl,AllPub,Inside,Gtl,Edwards,Norm,Norm,1Fam,1.5Fin,5,5,1941,1960,Gable,CompShg,Wd Sdng,Wd Sdng,,0.0,TA,TA,CBlock,TA,TA,No,LwQ,408.0,BLQ,420.0,156.0,984.0,GasA,Ex,Y,SBrkr,984,620,0,0.0,0.0,2,0,3,1,TA,6,Min2,0,,Detchd,1977.0,Unf,2.0,660.0,TA,TA,Y,0,68,0,0,0,0,,,,0,7,2009,WD ,Normal,2812 WOOD ST,42.022083404893664,-93.65586234297449,False,False,False,False,False,True,False,False,True,3,72.89719626168224,2.0,8020,9.305559638557117,Old
907260050,1932,213000.0,60,70.0,8749,,Reg,Lvl,AllPub,Inside,Gtl,CollgCr,Norm,Norm,1Fam,2Story,7,5,2003,2003,Gable,CompShg,VinylSd,VinylSd,,0.0,Gd,TA,PConc,Gd,TA,No,GLQ,654.0,Unf,0.0,325.0,979.0,GasA,Ex,Y,SBrkr,992,940,0,1.0,0.0,2,1,3,1,Gd,7,Typ,1,Gd,Attchd,2003.0,RFn,2.0,610.0,TA,TA,Y,0,120,0,0,0,0,,,,0,6,2007,WD ,Normal,5110 CLEMENS BLVD,42.016945472759005,-93.68795145142214,False,False,False,False,False,True,False,False,True,4,110.19141231246766,3.5,13524,9.07680897935166,New
907131090,1661,212000.0,60,43.0,10667,,IR2,Lvl,AllPub,CulDSac,Gtl,CollgCr,PosN,Norm,1Fam,2Story,7,6,1996,1996,Gable,CompShg,VinylSd,VinylSd,,0.0,Gd,TA,PConc,Gd,TA,Av,GLQ,385.0,ALQ,344.0,70.0,799.0,GasA,Ex,Y,SBrkr,827,834,0,1.0,0.0,2,1,3,1,Gd,6,Typ,1,TA,Attchd,1996.0,RFn,2.0,550.0,TA,TA,Y,158,61,0,0,0,0,,,,0,4,2009,ConLw,Normal,5300 NORRIS ST,42.020881,-93.690581,False,False,False,False,False,True,False,False,True,4,127.55716004813478,3.5,11627,9.275003885301905,Recent
903206160,1827,202500.0,70,69.0,11737,,IR1,Bnk,AllPub,Inside,Gtl,BrkSide,Norm,Norm,1Fam,2Story,6,7,1924,1996,Gambrel,CompShg,BrkComm,Stucco,,0.0,TA,TA,BrkTil,TA,TA,No,Unf,0.0,Unf,0.0,848.0,848.0,GasW,TA,N,SBrkr,1017,810,0,0.0,0.0,1,0,2,1,TA,9,Typ,1,Gd,Detchd,1943.0,Unf,1.0,240.0,Fa,TA,Y,27,36,42,0,0,0,,GdPrv,,0,5,2006,WD ,Normal,910 BROOKRIDGE AVE,42.03141326212844,-93.62762851950863,False,False,False,False,False,True,False,False,True,3,110.77680525164114,1.0,10962,9.37058672111828,Old
528222020,1492,185101.0,60,75.0,9073,,IR1,Lvl,AllPub,Inside,Gtl,Gilbert,Norm,Norm,1Fam,2Story,7,5,2006,2006,Gable,CompShg,VinylSd,VinylSd,,0.0,Gd,TA,PConc,Gd,TA,No,Unf,0.0,Unf,0.0,738.0,738.0,GasA,Ex,Y,SBrkr,738,754,0,0.0,0.0,2,1,3,1,Gd,8,Typ,0,,Attchd,2006.0,Fin,2.0,440.0,TA,TA,Y,100,32,0,0,0,0,,,,0,10,2006,New,Partial,4116 WELBECK DR,42.06165534795861,-93.64400952242131,False,False,False,False,False,True,False,False,True,4,123.97923643670462,2.5,10444,9.113168460223909,New
526352090,1277,167000.0,20,85.0,10628,,Reg,Lvl,AllPub,Inside,Gtl,NAmes,Norm,Norm,1Fam,1Story,7,5,1970,1970,Flat,Tar&Grv,Plywood,Plywood,,0.0,TA,Gd,CBlock,TA,Gd,Gd,GLQ,778.0,Unf,0.0,499.0,1277.0,GasA,TA,Y,SBrkr,1277,0,0,1.0,0.0,1,0,2,1,TA,5,Typ,1,Po,Attchd,1970.0,Unf,2.0,526.0,TA,TA,Y,0,0,0,0,176,0,,GdWo,,0,4,2007,WD ,Normal,3010 KELLOGG AVE,42.05145469964584,-93.61846427481623,False,False,False,False,False,True,False,False,True,3,130.67292644757433,2.0,8939,9.271341393533582,Recent
534201280,1052,138500.0,20,70.0,8400,,Reg,Lvl,AllPub,Inside,Gtl,NAmes,Feedr,Norm,1Fam,1Story,5,5,1968,1968,Hip,CompShg,HdBoard,HdBoard,BrkFace,168.0,TA,TA,CBlock,TA,TA,Av,BLQ,1016.0,Unf,0.0,36.0,1052.0,GasA,Gd,Y,SBrkr,1052,0,0,1.0,0.0,1,1,3,1,TA,5,Typ,0,,Attchd,1968.0,RFn,1.0,288.0,TA,TA,Y,356,0,0,0,0,0,,GdWo,,0,11,2006,WD ,Normal,1237 24TH ST,42.04574050623812,-93.62654775999262,False,False,False,False,False,True,False,False,True,3,131.52896486229818,2.5,5260,9.036106025364846,Recent
908102330,1220,102000.0,20,67.0,8877,,Reg,Lvl,AllPub,Inside,Gtl,Edwards,Norm,Norm,1Fam,1Story,4,5,1951,1951,Gable,CompShg,Wd Sdng,Wd Sdng,,0.0,TA,TA,CBlock,Fa,Fa,No,LwQ,836.0,Unf,0.0,0.0,836.0,GasA,TA,Y,FuseF,1220,0,0,0.0,0.0,1,0,2,1,TA,6,Typ,0,,Detchd,1951.0,Unf,2.0,396.0,TA,TA,Y,0,0,0,0,0,0,,,,0,4,2006,COD,Normal,301 ABRAHAM DR,42.020343414141415,-93.67639185858586,False,False,False,False,False,True,False,False,True,3,83.53808353808354,1.0,4880,9.09133158539398,Recent
906385010,1226,198900.0,20,94.0,10402,,IR1,Lvl,AllPub,Corner,Gtl,CollgCr,Norm,Norm,1Fam,1Story,7,5,2009,2009,Gable,CompShg,VinylSd,VinylSd,,0.0,TA,TA,PConc,Gd,TA,No,Unf,0.0,Unf,0.0,1226.0,1226.0,GasA,Ex,Y,SBrkr,1226,0,0,0.0,0.0,2,0,3,1,Gd,6,Typ,0,,Attchd,2009.0,RFn,3.0,740.0,TA,TA,Y,0,36,0,0,0,0,,,,0,5,2010,WD ,Normal,5505 DURANT ST,42.02461337755501,-93.69205532625902,False,False,False,False,False,True,False,False,True,3,162.10268948655258,2.0,8582,9.249849505070895,New
534276230,1712,145000.0,90,70.0,8393,,Reg,Lvl,AllPub,Corner,Gtl,NAmes,Norm,Norm,Duplex,1Story,5,5,1959,2005,Gable,CompShg,MetalSd,MetalSd,BrkFace,122.0,TA,TA,CBlock,TA,TA,No,LwQ,528.0,Unf,0.0,1098.0,1626.0,GasA,Ex,Y,SBrkr,1712,0,0,0.0,0.0,2,0,4,2,TA,8,Typ,0,,Attchd,2005.0,Fin,2.0,588.0,TA,TA,Y,272,54,0,0,0,0,,,,0,6,2006,WD ,Family,2002 MELROSE AVE,42.04224059534753,-93.62228029253552,False,False,False,False,False,True,False,False,True,3,84.64681844716871,2.0,8560,9.035272443893536,Recent
906420020,1915,220000.0,60,80.0,10041,,IR1,Lvl,AllPub,Inside,Gtl,SawyerW,Norm,Norm,1Fam,2Story,8,5,1992,1992,Gable,CompShg,HdBoard,HdBoard,,0.0,Gd,TA,PConc,Gd,TA,Mn,GLQ,789.0,Unf,0.0,119.0,908.0,GasA,Ex,Y,SBrkr,927,988,0,1.0,0.0,2,1,3,1,Gd,8,Typ,1,TA,Attchd,1992.0,Fin,2.0,506.0,TA,TA,Y,120,150,0,0,0,0,,,,0,2,2006,WD ,Abnorml,923 VERMONT CIR,42.0297174048556,-93.68220220455852,False,False,False,False,False,True,False,False,True,4,114.82254697286012,3.5,15320,9.21453157659465,Recent
527404120,882,126000.0,20,70.0,8400,,Reg,Lvl,AllPub,Corner,Gtl,NAmes,Norm,Norm,1Fam,1Story,4,5,1970,1970,Gable,CompShg,Plywood,Plywood,,0.0,TA,TA,CBlock,TA,TA,No,ALQ,804.0,Rec,78.0,0.0,882.0,GasA,TA,Y,SBrkr,882,0,0,1.0,0.0,1,0,2,1,TA,4,Typ,0,,Attchd,1970.0,Fin,2.0,525.0,TA,TA,Y,240,0,0,0,0,0,,MnPrv,,0,4,2010,WD ,Normal,3203 GARNER AVE,42.053514279505634,-93.62714799845187,False,False,False,False,False,True,False,False,True,3,142.69535673839184,2.0,3528,9.036106025364846,Recent
907192010,1861,200000.0,60,95.0,13450,,IR1,Lvl,AllPub,Corner,Gtl,CollgCr,Norm,Norm,1Fam,2Story,7,5,2002,2002,Gable,CompShg,VinylSd,VinylSd,,0.0,Gd,TA,PConc,Gd,TA,No,GLQ,700.0,Unf,0.0,216.0,916.0,GasA,Ex,Y,SBrkr,920,941,0,1.0,0.0,2,1,3,1,Gd,8,Typ,0,,BuiltIn,2002.0,RFn,2.0,492.0,TA,TA,Y,146,91,0,0,0,0,,,,0,6,2006,WD ,Normal,5301 CLEMENS BLVD,42.016892,-93.689424,False,False,False,False,False,True,False,False,True,4,107.41138560687433,3.5,13027,9.506808731708581,New
527131030,1659,278000.0,120,40.0,5664,,IR1,Lvl,AllPub,Inside,Gtl,StoneBr,Norm,Norm,TwnhsE,1Story,8,5,2000,2000,Gable,CompShg,CemntBd,CmentBd,,0.0,Gd,TA,PConc,Gd,TA,No,GLQ,1158.0,Unf,0.0,343.0,1501.0,GasA,Ex,Y,SBrkr,1659,0,0,1.0,0.0,2,0,2,1,Ex,5,Typ,1,Ex,Attchd,2000.0,Fin,2.0,499.0,TA,TA,Y,212,59,0,0,0,0,,,,0,10,2009,WD ,Normal,4239 STONE BROOKE RD,42.06221430156738,-93.63419894544032,False,False,False,False,False,True,False,False,True,4,167.46987951807228,3.0,13272,8.642062173462106,Recent
527452290,1387,145000.0,20,65.0,7514,,Reg,Lvl,AllPub,Inside,Gtl,NAmes,Norm,Norm,1Fam,1Story,5,7,1967,1975,Hip,CompShg,MetalSd,MetalSd,,0.0,TA,TA,CBlock,TA,TA,Mn,ALQ,373.0,Rec,108.0,462.0,943.0,GasA,TA,Y,SBrkr,1387,0,0,1.0,0.0,1,0,3,1,TA,6,Typ,1,TA,Attchd,1974.0,RFn,1.0,300.0,TA,TA,Y,0,0,240,0,0,0,,,,0,9,2006,WD ,Normal,1401 JOHNSON ST,42.04895500520409,-93.62913307832436,False,False,False,False,False,True,False,False,True,3,104.46685878962536,2.0,6935,8.924656302187074,Recent
907250030,1978,318000.0,20,80.0,10389,,Reg,Lvl,AllPub,Inside,Gtl,CollgCr,Norm,Norm,1Fam,1Story,8,5,2003,2003,Hip,CompShg,CemntBd,CmentBd,BrkFace,320.0,Gd,TA,PConc,Gd,TA,No,GLQ,1682.0,Unf,0.0,296.0,1978.0,GasA,Ex,Y,SBrkr,1978,0,0,1.0,0.0,2,1,3,1,Gd,8,Typ,1,Gd,Attchd,2003.0,RFn,3.0,850.0,TA,TA,Y,188,25,0,0,0,0,,,,0,5,2010,WD ,Normal,509 SMILEY AVE,42.01855820993013,-93.68789159060452,False,False,False,False,False,True,False,False,True,4,160.68721576553816,3.5,15824,9.248599084093273,New
909251040,1298,146500.0,50,51.0,6821,,Reg,HLS,AllPub,Inside,Gtl,Crawfor,Norm,Norm,1Fam,1.5Fin,6,7,1921,2005,Gable,CompShg,Wd Sdng,Wd Sdng,,0.0,TA,TA,BrkTil,TA,TA,No,BLQ,113.0,Unf,0.0,538.0,651.0,GasA,Gd,Y,SBrkr,759,539,0,0.0,0.0,2,0,2,1,TA,8,Typ,1,Gd,Detchd,1994.0,Unf,1.0,240.0,TA,TA,P,216,0,168,0,0,0,,,,0,8,2007,WD ,Normal,2322 BAKER ST,42.01788108163265,-93.6469343265306,False,False,False,False,False,True,False,False,True,3,112.77906081601232,2.0,7788,8.82790796297859,Old
535377100,720,86900.0,50,60.0,7008,,Reg,Lvl,AllPub,Corner,Gtl,OldTown,Norm,Norm,1Fam,1.5Fin,4,8,1900,1998,Gable,CompShg,MetalSd,MetalSd,,0.0,TA,Gd,BrkTil,Fa,Fa,No,Unf,0.0,Unf,0.0,448.0,448.0,GasA,Ex,Y,SBrkr,448,272,0,0.0,0.0,1,0,1,1,Fa,5,Typ,0,,Attchd,1900.0,Unf,1.0,280.0,Fa,TA,Y,0,0,70,0,0,0,,,,0,3,2006,WD ,Normal,1502 DOUGLAS AVE,42.037159122448976,-93.61220516326532,False,False,False,False,False,True,False,False,True,3,120.52704576976421,1.0,2880,8.854950316500325,Old
528174050,1358,213000.0,120,47.0,6904,,IR1,Lvl,AllPub,Inside,Gtl,NridgHt,Norm,Norm,TwnhsE,1Story,6,5,2005,2005,Gable,CompShg,VinylSd,VinylSd,Stone,240.0,Gd,TA,PConc,Gd,TA,Av,ALQ,836.0,Unf,0.0,522.0,1358.0,GasA,Ex,Y,SBrkr,1358,0,0,0.0,0.0,2,0,2,1,Gd,6,Typ,1,Gd,Attchd,2005.0,RFn,2.0,484.0,TA,TA,Y,192,36,0,0,0,0,,,,0,8,2009,WD ,Normal,2910 HARRISON RD,42.05923777869763,-93.64939269814306,False,False,False,False,False,True,False,False,True,4,156.73289183222957,2.0,8148,8.840001065843392,New
533128090,1624,262000.0,20,89.0,12461,,Reg,Lvl,AllPub,Corner,Gtl,NoRidge,Norm,Norm,1Fam,1Story,8,5,1994,1995,Gable,CompShg,ImStucc,ImStucc,,0.0,Gd,TA,PConc,Gd,TA,No,GLQ,1456.0,Unf,0.0,168.0,1624.0,GasA,Ex,Y,SBrkr,1624,0,0,1.0,0.0,2,0,2,1,Gd,5,Typ,1,Fa,Attchd,1994.0,RFn,3.0,757.0,TA,TA,Y,0,114,192,0,0,0,,GdPrv,,0,7,2006,WD ,Normal,2700 NORTHRIDGE CIR,42.047999,-93.650289,False,False,False,False,False,True,False,False,True,4,161.23076923076923,3.0,12992,9.430439293104167,Recent
533250110,1239,217500.0,120,22.0,11064,,IR2,Lvl,AllPub,CulDSac,Gtl,Veenker,Norm,Norm,TwnhsE,1Story,8,5,1995,1995,Hip,CompShg,BrkFace,BrkFace,,0.0,Gd,TA,PConc,Gd,TA,Gd,LwQ,560.0,GLQ,670.0,0.0,1230.0,GasA,Ex,Y,SBrkr,1239,0,0,1.0,0.0,1,1,1,1,Gd,4,Typ,1,Fa,Attchd,1995.0,Fin,2.0,477.0,TA,TA,Y,172,24,0,0,0,0,,,,0,8,2008,WD ,Normal,2869 GREENSBORO CIR,42.04482523153892,-93.64810611298782,False,False,False,False,False,True,False,False,True,4,175.40322580645162,2.5,9912,9.31154225248515,Recent
908186040,1072,148000.0,180,35.0,3675,,Reg,Lvl,AllPub,Inside,Gtl,Edwards,Norm,Norm,TwnhsE,SLvl,6,5,2005,2005,Gable,CompShg,VinylSd,VinylSd,BrkFace,80.0,TA,TA,PConc,Gd,TA,Gd,GLQ,459.0,Unf,0.0,88.0,547.0,GasA,Ex,Y,SBrkr,1072,0,0,1.0,0.0,1,0,2,1,TA,5,Typ,0,,Basment,2005.0,RFn,2.0,525.0,TA,TA,Y,0,28,0,0,0,0,,,,0,6,2008,WD ,Normal,3905 MARIGOLD DR,42.01896239856682,-93.6701125847686,False,False,False,False,False,False,True,False,True,3,137.93103448275863,2.0,6432,8.209580483475577,New
903231050,884,113000.0,45,51.0,6120,,Reg,Lvl,AllPub,Inside,Gtl,BrkSide,Norm,Norm,1Fam,1.5Unf,5,7,1939,1950,Gable,CompShg,AsbShng,AsbShng,,0.0,Gd,TA,BrkTil,TA,TA,No,Unf,0.0,Unf,0.0,884.0,884.0,GasA,Ex,Y,SBrkr,884,0,0,0.0,0.0,1,0,2,1,TA,5,Typ,0,,Detchd,1939.0,Unf,1.0,240.0,TA,TA,Y,0,0,136,0,0,0,,MnPrv,,0,7,2007,WD ,Normal,1113 MARSTON AVE,42.0323832020202,-93.6236834040404,False,False,False,False,False,False,True,False,True,4,127.68361581920904,1.0,4420,8.71948076085107,Old
908152110,1398,160500.0,60,72.0,7200,,Reg,Lvl,AllPub,Inside,Gtl,Edwards,Norm,Norm,1Fam,2Story,6,7,1976,2001,Hip,CompShg,Plywood,Plywood,,0.0,TA,TA,CBlock,TA,TA,Av,ALQ,288.0,Unf,0.0,396.0,684.0,GasA,TA,Y,SBrkr,684,714,0,0.0,0.0,1,1,3,1,TA,6,Typ,1,TA,Attchd,1976.0,Fin,2.0,440.0,TA,TA,Y,0,0,0,0,0,0,,MnPrv,,0,2,2008,WD ,Normal,414 WELLONS DR,42.01879497674418,-93.67513790697674,False,False,False,False,False,True,False,False,True,3,114.72480343102215,1.5,8388,8.881975184248867,Recent
535476110,941,145000.0,90,75.0,8604,,IR1,Lvl,AllPub,Inside,Gtl,NAmes,Norm,Norm,Duplex,SFoyer,5,7,1978,1978,Gable,CompShg,Plywood,Plywood,BrkFace,124.0,TA,Gd,CBlock,Gd,TA,Av,GLQ,941.0,Unf,0.0,0.0,941.0,GasA,Gd,Y,SBrkr,941,0,0,1.0,0.0,1,0,2,1,Gd,4,Typ,0,,Attchd,1978.0,Unf,2.0,564.0,TA,TA,Y,0,40,0,0,0,0,,,,0,11,2009,WD ,Normal,1603 MEADOWLANE AVE 1605,42.03797473457034,-93.6039140588975,False,False,False,False,False,True,False,False,True,3,153.92781316348194,2.0,4705,9.06009870864564,Recent
533250050,1288,245500.0,120,38.0,14963,,IR2,Lvl,AllPub,Inside,Gtl,Veenker,Norm,Norm,TwnhsE,1Story,8,5,1996,1996,Gable,CompShg,BrkFace,BrkFace,,0.0,Gd,TA,PConc,Gd,TA,No,GLQ,786.0,Unf,0.0,474.0,1260.0,GasA,Ex,Y,SBrkr,1288,0,0,1.0,0.0,1,1,1,1,Ex,4,Typ,2,Gd,Attchd,1996.0,Fin,2.0,500.0,TA,TA,Y,120,30,0,0,224,0,,,,0,12,2008,WD ,Normal,2845 GREENSBORO CIR,42.04474817188798,-93.64791854964815,False,False,False,False,False,True,False,False,True,4,190.4577191621412,2.5,10304,9.613402595468036,Recent
535325340,1005,133500.0,20,65.0,11050,,Reg,Lvl,AllPub,Inside,Gtl,NAmes,Norm,Norm,1Fam,1Story,5,5,1956,1956,Hip,CompShg,Wd Sdng,Wd Sdng,,0.0,TA,TA,CBlock,TA,TA,No,LwQ,488.0,Unf,0.0,517.0,1005.0,GasA,Ex,Y,SBrkr,1005,0,0,0.0,0.0,1,0,2,1,TA,6,Typ,1,TA,Attchd,1956.0,Unf,1.0,319.0,TA,TA,Y,0,0,0,0,288,0,,,,0,7,2006,WD ,Normal,221 16TH ST,42.038378,-93.61274980392156,False,False,False,False,False,True,False,False,True,3,132.70377733598409,1.0,5025,9.310276200588783,Recent
909475050,1696,198000.0,20,68.0,20693,,IR1,Bnk,AllPub,Corner,Gtl,Crawfor,Norm,Norm,1Fam,1Story,7,5,1971,1971,Gable,CompShg,Plywood,Plywood,BrkFace,652.0,TA,TA,CBlock,Gd,TA,No,Rec,434.0,Unf,0.0,1262.0,1696.0,GasA,Ex,Y,SBrkr,1696,0,0,0.0,0.0,2,0,3,1,TA,7,Typ,2,TA,Attchd,1971.0,Fin,2.0,625.0,TA,TA,Y,0,146,0,0,0,0,,GdWo,,0,2,2007,WD ,Normal,2152 ASHMORE DR,42.01119537789834,-93.64359939425104,False,False,False,False,False,True,False,False,True,3,116.67648791985857,2.0,11872,9.937599082164896,Recent
907196020,1541,205000.0,20,118.0,13704,,IR1,Lvl,AllPub,Corner,Gtl,CollgCr,Norm,Norm,1Fam,1Story,7,5,2001,2002,Gable,CompShg,VinylSd,VinylSd,BrkFace,150.0,Gd,TA,PConc,Gd,TA,No,Unf,0.0,Unf,0.0,1541.0,1541.0,GasA,Ex,Y,SBrkr,1541,0,0,0.0,0.0,2,0,3,1,Gd,6,Typ,1,TA,Attchd,2001.0,RFn,3.0,843.0,TA,TA,Y,468,81,0,0,0,0,,,,0,1,2006,WD ,Normal,5216 CLEMENS BLVD,42.016904971498526,-93.68856952271436,False,False,False,False,False,True,False,False,True,4,132.94422827496757,2.0,10787,9.525516008736886,New
533130160,2225,285000.0,60,88.0,11134,,Reg,Lvl,AllPub,Inside,Gtl,NoRidge,Norm,Norm,1Fam,2Story,8,5,1992,1993,Gable,CompShg,HdBoard,HdBoard,BrkFace,180.0,Gd,TA,PConc,Gd,TA,No,GLQ,1129.0,Unf,0.0,261.0,1390.0,GasA,Ex,Y,SBrkr,1402,823,0,1.0,0.0,2,1,4,1,Gd,7,Typ,1,TA,Attchd,1992.0,RFn,3.0,713.0,TA,TA,Y,198,30,0,0,0,0,,,,0,6,2010,WD ,Normal,2424 RIDGETOP CIR,42.04577395463849,-93.65232379747752,False,False,False,False,False,True,False,False,True,4,128.03234501347708,3.5,17800,9.317848579691468,Recent
535102010,1280,175000.0,85,68.0,10050,,IR1,Lvl,AllPub,Inside,Gtl,NAmes,Norm,Norm,1Fam,SFoyer,5,6,1966,1966,Gable,CompShg,HdBoard,HdBoard,BrkFace,87.0,TA,TA,CBlock,TA,TA,Av,GLQ,602.0,Unf,0.0,191.0,793.0,GasA,Ex,Y,SBrkr,1280,0,0,0.0,1.0,2,0,3,1,TA,6,Typ,1,TA,Basment,1966.0,Fin,2.0,432.0,TA,TA,Y,140,40,0,0,0,0,,,,0,6,2007,WD ,Normal,2729 NORTHWOOD DR,42.04888004672891,-93.61700179201884,False,False,False,False,False,True,False,False,True,3,136.6120218579235,2.5,6400,9.21542741102474,Recent
531475220,1882,160000.0,90,75.0,8250,,Reg,Lvl,AllPub,Inside,Gtl,SawyerW,Norm,Norm,Duplex,2Story,6,7,1981,1981,Gable,CompShg,Wd Sdng,Wd Shng,,0.0,TA,TA,Slab,,,,,0.0,,0.0,0.0,0.0,GasA,TA,Y,SBrkr,964,918,0,0.0,0.0,2,0,4,2,TA,8,Typ,2,TA,Attchd,1981.0,Unf,2.0,612.0,TA,TA,Y,0,0,0,0,0,0,,,,0,5,2009,WD ,Normal,1404 IDAHO AVE,42.035663809096576,-93.683921687578,False,False,False,False,False,True,False,False,True,3,84.97079129049389,2.0,11292,9.018089684104343,Recent
527325070,2872,272000.0,60,68.0,12227,,IR1,Lvl,AllPub,Corner,Gtl,NWAmes,PosN,Norm,1Fam,2Story,6,7,1977,1995,Gable,CompShg,HdBoard,HdBoard,BrkFace,424.0,TA,Gd,CBlock,Gd,Gd,No,ALQ,896.0,Unf,0.0,434.0,1330.0,GasA,TA,Y,SBrkr,1542,1330,0,1.0,0.0,2,1,4,1,TA,11,Typ,1,TA,Attchd,1977.0,Fin,2.0,619.0,TA,TA,Y,550,282,0,0,0,0,,,,0,7,2008,WD ,Normal,1904 BUCHANAN DR,42.0545474,-93.63530666666668,False,False,False,False,False,True,False,False,True,3,94.67455621301775,3.5,17232,9.411483683010726,Recent
911175440,1396,115000.0,190,50.0,9000,,Reg,Lvl,AllPub,Inside,Gtl,IDOTRR,Norm,Norm,2fmCon,1.5Fin,5,6,1951,1951,Gable,CompShg,WdShing,Wd Shng,,0.0,Fa,Fa,CBlock,TA,TA,Mn,Unf,0.0,Unf,0.0,660.0,660.0,GasA,TA,N,SBrkr,1060,336,0,0.0,0.0,2,0,4,2,TA,8,Min2,0,,,1978.0,,0.0,0.0,,,Y,0,0,0,0,0,0,,,,0,10,2006,WD ,Abnorml,315 S 4TH ST,42.019100407352354,-93.61476988525514,False,True,False,False,False,False,False,False,True,2,82.319255547602,2.0,6980,9.105090961257085,Recent
903226160,1132,134000.0,50,50.0,6000,,Reg,Lvl,AllPub,Inside,Gtl,BrkSide,Norm,Norm,1Fam,1.5Fin,6,7,1939,1950,Gable,CompShg,MetalSd,MetalSd,,0.0,TA,TA,BrkTil,TA,Gd,No,BLQ,452.0,LwQ,12.0,144.0,608.0,GasA,TA,Y,SBrkr,608,524,0,1.0,0.0,1,0,2,1,TA,5,Typ,0,,Detchd,1939.0,Unf,1.0,240.0,TA,TA,Y,0,0,128,0,0,0,,MnPrv,,0,4,2010,WD ,Abnorml,1222 CURTISS AVE,42.03363191836735,-93.6245344897959,False,False,False,False,False,False,True,False,True,3,118.27007943512798,2.0,6792,8.699681400989514,Old
902134100,899,78000.0,30,60.0,6756,,Reg,Lvl,AllPub,Inside,Gtl,OldTown,Norm,Norm,1Fam,1Story,5,6,1910,1950,Mansard,CompShg,MetalSd,MetalSd,,0.0,TA,TA,BrkTil,TA,Gd,No,Unf,0.0,Unf,0.0,481.0,481.0,GasA,TA,N,FuseA,899,0,0,0.0,0.0,1,0,2,1,TA,5,Typ,0,,Detchd,1930.0,Unf,1.0,200.0,Fa,TA,P,0,0,96,0,0,0,,,,0,9,2008,WD ,Normal,321 9TH ST,42.03025391265237,-93.61426001934532,False,False,False,False,False,False,True,False,True,3,86.66666666666667,1.0,4495,8.818334283552174,Old
902111010,844,111500.0,30,50.0,5633,Pave,Reg,Lvl,AllPub,Inside,Gtl,OldTown,Norm,Norm,1Fam,1Story,5,7,1925,1950,Gable,CompShg,MetalSd,Stucco,,0.0,TA,TA,BrkTil,TA,Fa,No,Unf,0.0,Unf,0.0,844.0,844.0,GasA,TA,Y,SBrkr,844,0,0,0.0,0.0,1,0,2,1,TA,5,Typ,0,,Detchd,1925.0,Unf,1.0,216.0,TA,TA,N,50,81,123,0,0,0,,,,0,7,2006,WD ,Normal,412 10TH ST,42.03119248315056,-93.61581118310563,False,False,False,False,False,False,True,False,True,3,131.9526627218935,1.0,4220,8.636574948436317,Old
535381040,2377,142900.0,50,60.0,10410,Grvl,Reg,Lvl,AllPub,Inside,Gtl,OldTown,Norm,Norm,1Fam,1.5Fin,4,5,1915,1950,Gable,CompShg,MetalSd,MetalSd,,0.0,TA,TA,BrkTil,TA,TA,No,Unf,0.0,Unf,0.0,1313.0,1313.0,GasA,TA,Y,SBrkr,1313,0,1064,0.0,0.0,2,0,3,1,Gd,8,Min2,1,TA,Detchd,1954.0,Unf,2.0,528.0,TA,TA,Y,0,0,432,0,0,0,,,,0,6,2009,WD ,Normal,1311 KELLOGG AVE,42.03476542857143,-93.61408520408165,False,False,False,False,False,True,False,False,True,3,60.092514718250634,2.0,9508,9.250618218474752,Old
910202060,1154,125500.0,50,40.0,5436,,Reg,Lvl,AllPub,Inside,Gtl,IDOTRR,Norm,Norm,1Fam,1.5Fin,4,8,1922,2007,Gable,CompShg,VinylSd,VinylSd,,0.0,TA,Gd,BrkTil,TA,TA,No,BLQ,735.0,Unf,0.0,61.0,796.0,GasA,Gd,Y,SBrkr,796,358,0,1.0,0.0,1,0,3,1,Gd,7,Typ,0,,Detchd,1922.0,Unf,1.0,240.0,TA,TA,N,0,96,0,0,0,0,,MnPrv,,0,5,2010,WD ,Normal,109 S MAPLE AVE,42.0226691058526,-93.62532593181548,False,False,False,False,False,False,True,False,True,3,108.65800865800865,2.0,4616,8.600982717145921,Old
535477180,864,125500.0,20,60.0,6600,,Reg,Lvl,AllPub,Inside,Gtl,NAmes,PosN,Norm,1Fam,1Story,5,5,1962,1962,Hip,CompShg,Wd Sdng,Wd Sdng,,0.0,TA,TA,CBlock,TA,TA,No,ALQ,110.0,BLQ,442.0,312.0,864.0,GasA,Gd,Y,SBrkr,864,0,0,0.0,0.0,1,0,2,1,TA,5,Typ,0,,Detchd,1962.0,Unf,1.0,294.0,TA,TA,Y,58,0,0,0,0,0,,,,0,12,2007,WD ,Normal,1308 MEADOWLANE AVE,42.03487444444444,-93.60366755555556,False,False,False,False,False,True,False,False,True,3,145.08670520231215,1.0,4320,8.79497643168877,Recent
528429120,2097,423000.0,20,49.0,20896,,IR2,Lvl,AllPub,CulDSac,Gtl,Somerst,RRAn,Norm,1Fam,1Story,8,5,2005,2006,Gable,CompShg,VinylSd,VinylSd,,0.0,Gd,TA,PConc,Ex,TA,Mn,GLQ,1721.0,Unf,0.0,356.0,2077.0,GasA,Ex,Y,SBrkr,2097,0,0,1.0,0.0,1,1,1,1,Ex,8,Typ,1,Ex,Attchd,2005.0,Fin,3.0,1134.0,TA,TA,Y,192,267,0,0,0,0,,,,0,1,2006,New,Partial,2422 DALTON CIR,42.03481653077966,-93.64038801352564,False,False,False,False,False,True,False,False,True,4,201.62059103908484,2.5,16776,9.947360886980098,New
908127050,1176,119900.0,20,73.0,16133,,Reg,HLS,AllPub,Inside,Gtl,Edwards,Norm,Norm,1Fam,1Story,5,4,1969,1969,Gable,CompShg,HdBoard,Plywood,,0.0,TA,TA,CBlock,Gd,TA,Mn,ALQ,847.0,Unf,0.0,329.0,1176.0,GasA,TA,Y,SBrkr,1176,0,0,1.0,0.0,1,0,2,1,TA,5,Typ,0,,Attchd,1969.0,Unf,1.0,360.0,TA,TA,Y,0,92,0,0,112,0,,,,0,12,2006,WD ,Abnorml,211 DOTSON DR,42.0210151632653,-93.67148908163266,False,False,False,False,False,True,False,False,True,3,101.86915887850468,2.0,5880,9.68868412549692,Recent
528439010,1460,247000.0,20,87.0,10037,,Reg,Lvl,AllPub,Corner,Gtl,Somerst,Feedr,Norm,1Fam,1Story,8,5,2006,2007,Hip,CompShg,VinylSd,VinylSd,,0.0,Gd,TA,PConc,Ex,TA,No,GLQ,666.0,Unf,0.0,794.0,1460.0,GasA,Ex,Y,SBrkr,1460,0,0,0.0,0.0,2,0,3,1,Gd,6,Typ,1,Gd,Attchd,2006.0,Fin,2.0,480.0,TA,TA,Y,0,20,0,0,0,0,,,,0,8,2008,WD ,Normal,2625 YORKSHIRE ST,42.05319034438527,-93.64376476899724,False,False,False,False,False,True,False,False,True,4,169.06228610540725,2.0,11680,9.214133170214879,New
906223110,1626,226500.0,20,80.0,9938,,Reg,Lvl,AllPub,Inside,Gtl,SawyerW,Norm,Norm,1Fam,1Story,7,5,1994,1994,Gable,CompShg,HdBoard,HdBoard,BrkFace,251.0,Gd,TA,PConc,Gd,TA,No,GLQ,1271.0,Unf,0.0,331.0,1602.0,GasA,Ex,Y,SBrkr,1626,0,0,1.0,0.0,2,1,3,1,Gd,7,Typ,1,TA,Attchd,1994.0,RFn,2.0,534.0,TA,TA,Y,424,40,0,0,0,0,,,,0,4,2008,WD ,Normal,1018 VERMONT CT,42.03093013690148,-93.68199716308956,False,False,False,False,False,True,False,False,True,4,139.21327596803934,3.5,11382,9.204221690968005,Recent
528358010,1720,260400.0,20,59.0,10593,,IR1,Lvl,AllPub,Inside,Gtl,NoRidge,Norm,Norm,1Fam,1Story,7,5,1996,1996,Hip,CompShg,VinylSd,VinylSd,BrkFace,338.0,Gd,TA,PConc,Gd,TA,No,GLQ,919.0,Unf,0.0,801.0,1720.0,GasA,Ex,Y,SBrkr,1720,0,0,1.0,0.0,2,0,3,1,Gd,7,Typ,1,TA,Attchd,1996.0,Fin,2.0,527.0,TA,TA,Y,240,56,154,0,0,0,,,,0,3,2010,WD ,Normal,3127 ASPEN RD,42.05171935144844,-93.65428032490836,False,False,False,False,False,True,False,False,True,4,151.30737943056363,3.0,12040,9.268043082104471,Recent
532378160,1236,135000.0,20,65.0,6993,,Reg,Lvl,AllPub,Inside,Gtl,Sawyer,Feedr,Norm,1Fam,1Story,5,7,1961,1994,Gable,CompShg,HdBoard,Plywood,,0.0,TA,TA,CBlock,TA,TA,No,BLQ,465.0,Unf,0.0,447.0,912.0,GasA,TA,Y,SBrkr,1236,0,0,0.0,0.0,1,0,3,1,TA,6,Typ,1,TA,Attchd,1961.0,Unf,1.0,288.0,TA,TA,Y,0,0,0,0,0,0,,,,0,6,2006,WD ,Normal,3815 ONTARIO ST,42.03458848484848,-93.66994189898988,False,False,False,False,False,True,False,False,True,3,109.13500404203718,1.0,6180,8.852807917623322,Recent
531450040,1603,175900.0,60,65.0,7153,,Reg,Lvl,AllPub,Inside,Gtl,SawyerW,Norm,Norm,1Fam,2Story,6,5,1992,1992,Gable,CompShg,VinylSd,VinylSd,,0.0,Gd,Gd,PConc,Gd,TA,No,ALQ,387.0,Unf,0.0,374.0,761.0,GasA,Ex,Y,SBrkr,810,793,0,0.0,0.0,2,1,3,1,Gd,7,Typ,0,,Attchd,1992.0,RFn,2.0,484.0,TA,TA,Y,0,124,0,0,0,0,,,,0,7,2006,WD ,Normal,1309 KENTUCKY AVE,42.03471223334514,-93.687856790651,False,False,False,False,False,True,False,False,True,4,109.66334164588528,2.5,9618,8.875426919818963,Recent
527326040,1411,82500.0,20,85.0,11900,,Reg,Lvl,AllPub,Inside,Gtl,NWAmes,Norm,Norm,1Fam,1Story,7,5,1977,1977,Hip,CompShg,Plywood,Plywood,BrkFace,209.0,TA,Gd,CBlock,TA,TA,No,ALQ,822.0,Unf,0.0,564.0,1386.0,GasA,TA,Y,SBrkr,1411,0,0,0.0,0.0,2,0,3,1,TA,6,Typ,1,TA,Attchd,1977.0,Fin,2.0,544.0,TA,TA,Y,192,0,0,0,0,0,,,,0,4,2009,WD ,Family,3412 TAFT AVE,42.05512945519149,-93.63508069267212,False,False,False,False,False,True,False,False,True,3,58.42776203966006,2.0,9877,9.38437770918244,Recent
903204095,935,79500.0,40,50.0,9100,,Reg,Lvl,AllPub,Inside,Gtl,BrkSide,RRAn,Feedr,1Fam,1Story,5,6,1930,1960,Gable,CompShg,VinylSd,VinylSd,,0.0,TA,TA,BrkTil,TA,TA,No,Unf,0.0,Unf,0.0,742.0,742.0,GasA,TA,Y,FuseA,779,0,156,0.0,0.0,1,0,2,1,TA,4,Typ,0,,Detchd,1988.0,Unf,1.0,308.0,TA,TA,P,0,0,0,0,0,0,,,Shed,600,8,2008,WD ,Normal,1209 NORTHWESTERN AVE,42.03348381632653,-93.6257706734694,False,False,False,False,False,False,True,False,True,3,84.93589743589743,1.0,4675,9.116139576577355,Old
527182170,2090,207500.0,160,68.0,5062,,IR1,Lvl,AllPub,CulDSac,Gtl,StoneBr,Norm,Norm,TwnhsE,2Story,7,5,1984,1984,Gable,CompShg,HdBoard,HdBoard,,0.0,Gd,TA,CBlock,Gd,TA,Mn,GLQ,828.0,LwQ,182.0,180.0,1190.0,GasA,Gd,Y,SBrkr,1190,900,0,1.0,0.0,2,0,3,1,Gd,6,Min1,1,TA,Attchd,1984.0,Fin,2.0,577.0,TA,TA,Y,219,0,0,0,0,0,,,,0,9,2007,WD ,Normal,3908 STONE BROOKE CIR,42.059300612982,-93.63312900362668,False,False,False,False,False,True,False,False,True,4,99.23481587757054,3.0,14630,8.529714471969909,Recent
905105040,897,115000.0,20,86.0,8665,,IR1,Lvl,AllPub,Inside,Gtl,Sawyer,Norm,Norm,1Fam,1Story,5,5,1968,1968,Gable,CompShg,HdBoard,HdBoard,BrkFace,89.0,TA,TA,CBlock,TA,TA,Mn,Rec,168.0,BLQ,288.0,420.0,876.0,GasA,TA,Y,SBrkr,897,0,0,0.0,0.0,1,0,3,1,TA,5,Typ,0,,Attchd,1968.0,RFn,1.0,264.0,TA,TA,Y,0,0,0,0,0,0,,,,0,1,2007,WD ,Normal,1001 ARIZONA AVE,42.03108467910268,-93.67588045842474,False,False,False,False,False,True,False,False,True,3,128.06236080178175,1.0,4485,9.067162602299854,Recent
528477020,1656,249700.0,20,84.0,11096,,Reg,Lvl,AllPub,Inside,Gtl,Somerst,Norm,Norm,1Fam,1Story,8,5,2006,2006,Gable,CompShg,VinylSd,VinylSd,,0.0,Gd,TA,PConc,Gd,TA,Av,GLQ,24.0,Unf,0.0,1632.0,1656.0,GasA,Ex,Y,SBrkr,1656,0,0,0.0,0.0,2,0,3,1,Gd,7,Typ,0,,Attchd,2006.0,RFn,3.0,826.0,TA,TA,Y,0,146,0,0,0,0,,,,0,7,2007,WD ,Normal,2617 KINGSTON DR,42.05230299257608,-93.64365697352228,False,False,True,False,False,False,False,False,True,4,150.69402534701268,2.0,13248,9.314430080500564,New
905202210,1000,164000.0,20,87.0,13050,,Reg,Low,AllPub,Inside,Mod,ClearCr,Norm,Norm,1Fam,1Story,5,6,1963,1963,Flat,Tar&Grv,WdShing,Wd Shng,,0.0,TA,TA,CBlock,Gd,TA,Av,Rec,104.0,ALQ,850.0,46.0,1000.0,GasA,Ex,Y,SBrkr,1000,0,0,1.0,0.0,1,0,1,1,TA,4,Typ,2,TA,Attchd,1993.0,Unf,2.0,575.0,TA,TA,Y,238,0,148,0,0,0,,,,0,4,2006,WD ,Normal,3616 ROSS RD,42.03214923147222,-93.66717891980689,False,False,False,False,False,True,False,False,True,3,163.83616383616385,2.0,5000,9.476620038167528,Recent
903425190,2486,220000.0,50,90.0,33120,,IR3,Lvl,AllPub,Inside,Gtl,OldTown,RRAn,Feedr,1Fam,1.5Fin,6,5,1962,1962,Gable,CompShg,BrkFace,Wd Sdng,,0.0,TA,TA,CBlock,TA,TA,No,Unf,0.0,Unf,0.0,1595.0,1595.0,GasA,TA,Y,SBrkr,1611,875,0,0.0,0.0,2,0,5,1,TA,8,Typ,1,Gd,Detchd,1962.0,Unf,2.0,576.0,TA,TA,Y,0,0,0,0,0,0,,,,0,10,2006,WD ,Normal,609 NORTHWESTERN AVE,42.02695466155664,-93.62286472313644,False,False,False,False,False,False,True,False,True,3,88.45999195818256,2.0,14916,10.407922801280105,Recent
535150210,1098,135000.0,20,68.0,7390,,IR1,Lvl,AllPub,Inside,Gtl,NAmes,Norm,Norm,1Fam,1Story,5,7,1955,1955,Hip,CompShg,Wd Sdng,Wd Sdng,BrkFace,151.0,TA,TA,CBlock,TA,TA,No,ALQ,902.0,Unf,0.0,196.0,1098.0,GasA,TA,Y,SBrkr,1098,0,0,1.0,0.0,1,0,3,1,TA,6,Typ,0,,Attchd,1955.0,Unf,1.0,260.0,TA,TA,Y,0,0,0,0,0,0,,,,0,7,2008,WD ,Normal,2013 CLARK AVE,42.04247937668524,-93.6169772826296,False,False,False,False,False,True,False,False,True,3,122.83894449499545,2.0,5490,8.908018322784887,Recent
535453160,1040,133700.0,20,70.0,7560,,Reg,Lvl,AllPub,Inside,Gtl,NAmes,Norm,Norm,1Fam,1Story,5,5,1959,1959,Gable,CompShg,BrkFace,Wd Sdng,,0.0,TA,TA,CBlock,TA,TA,No,LwQ,369.0,Unf,0.0,671.0,1040.0,GasA,TA,Y,FuseA,1040,0,0,0.0,0.0,1,0,3,1,TA,6,Typ,0,,Attchd,1959.0,RFn,1.0,286.0,TA,TA,Y,140,0,252,0,0,0,,GdWo,,0,7,2006,WD ,Normal,1426 MAXWELL AVE,42.036146841115006,-93.6067183929868,False,False,False,False,False,True,False,False,True,3,128.43419788664747,1.0,5200,8.93075873555827,Recent
535353130,924,112500.0,20,68.0,15783,,Reg,Lvl,AllPub,Inside,Gtl,OldTown,Artery,Norm,1Fam,1Story,5,5,1952,1952,Gable,CompShg,Wd Sdng,Wd Sdng,,0.0,TA,TA,CBlock,TA,TA,No,Rec,292.0,Unf,0.0,632.0,924.0,GasA,TA,Y,SBrkr,924,0,0,0.0,0.0,1,0,2,1,TA,6,Typ,0,,Detchd,1952.0,Unf,1.0,420.0,TA,TA,Y,0,324,0,0,0,0,,MnPrv,Shed,400,6,2007,WD ,Normal,625 13TH ST,42.03456289103087,-93.61907956662776,False,False,False,False,False,True,False,False,True,3,121.62162162162163,1.0,4620,9.66675204770245,Recent
535456070,1588,150000.0,50,60.0,7200,,Reg,Lvl,AllPub,Inside,Gtl,NAmes,Norm,Norm,1Fam,1.5Fin,5,6,1955,1967,Gable,CompShg,MetalSd,MetalSd,,0.0,TA,Gd,CBlock,TA,TA,Mn,GLQ,370.0,Unf,0.0,398.0,768.0,GasA,Gd,Y,SBrkr,1024,564,0,0.0,0.0,1,1,3,1,TA,6,Typ,0,,Detchd,1955.0,Unf,2.0,480.0,TA,TA,Y,0,0,0,0,0,0,,,,0,3,2008,WD ,Normal,1308 STAFFORD AVE,42.03473895918367,-93.6077650612245,False,False,False,False,False,True,False,False,True,3,94.39899307740717,1.5,7940,8.881975184248867,Recent
908250090,930,99000.0,20,68.0,9520,,Reg,Bnk,AllPub,Inside,Mod,Edwards,Norm,Norm,1Fam,1Story,4,5,1953,1953,Gable,CompShg,MetalSd,MetalSd,Stone,115.0,TA,TA,CBlock,Gd,TA,No,Rec,767.0,Unf,0.0,144.0,911.0,GasA,TA,Y,SBrkr,930,0,0,0.0,0.0,1,0,2,1,TA,5,Typ,0,,Attchd,1953.0,RFn,1.0,286.0,TA,TA,Y,134,0,0,0,0,0,,MnPrv,Gar2,3000,5,2008,WD ,Normal,3505 COY ST,42.01805245,-93.66655328915088,False,False,False,False,False,True,False,False,True,3,106.33727175080558,1.0,3720,9.161255164285691,Recent
527452070,1069,146300.0,120,53.0,4043,,Reg,Lvl,AllPub,Inside,Gtl,NPkVill,Norm,Norm,TwnhsE,1Story,6,5,1975,1975,Gable,CompShg,Plywood,Plywood,,0.0,TA,TA,CBlock,Gd,TA,No,ALQ,727.0,BLQ,156.0,186.0,1069.0,GasA,Gd,Y,SBrkr,1069,0,0,0.0,1.0,2,0,2,1,TA,4,Typ,1,Po,Attchd,1975.0,RFn,2.0,440.0,TA,TA,Y,0,55,0,0,225,0,,,,0,7,2006,WD ,Normal,2951 NORTHWESTERN AVE,42.050471,-93.627279,False,False,False,False,False,True,False,False,True,3,136.7289719626168,2.5,6414,8.304989580140361,Recent
902325100,2104,155000.0,75,70.0,6300,,Reg,Lvl,AllPub,Corner,Gtl,OldTown,Norm,Norm,1Fam,2.5Unf,7,6,1910,2005,Gable,CompShg,Wd Sdng,Wd Sdng,,0.0,TA,TA,BrkTil,TA,TA,No,Unf,0.0,Unf,0.0,1226.0,1226.0,GasA,Ex,Y,SBrkr,1226,878,0,0.0,0.0,2,0,5,1,TA,9,Typ,0,,Detchd,1910.0,Unf,2.0,432.0,Fa,TA,P,0,341,88,0,0,0,,,,0,7,2006,WD ,Normal,802 BURNETT AVE,42.02906930612245,-93.61532728571429,False,False,False,False,False,False,True,False,True,3,73.63420427553444,2.0,14728,8.748463629942055,Old
921126030,1728,298751.0,20,79.0,11449,,IR1,HLS,AllPub,Inside,Gtl,Timber,Norm,Norm,1Fam,1Story,8,5,2007,2007,Gable,CompShg,VinylSd,VinylSd,,0.0,Gd,TA,PConc,Gd,TA,Av,GLQ,1011.0,Unf,0.0,873.0,1884.0,GasA,Ex,Y,SBrkr,1728,0,0,1.0,0.0,2,0,3,1,Gd,7,Typ,1,Gd,Attchd,2007.0,Fin,2.0,520.0,TA,TA,Y,0,276,0,0,0,0,,,,0,1,2008,WD ,Normal,3217 RED FOX RD,41.99298995025634,-93.65327529754713,False,False,False,False,False,True,False,False,True,4,172.7883169462117,3.0,13824,9.345745008982385,New
905401060,1663,256000.0,20,68.0,53227,,IR1,Low,AllPub,CulDSac,Mod,ClearCr,Norm,Norm,1Fam,1Story,4,6,1954,1994,Flat,Tar&Grv,Plywood,Plywood,,0.0,TA,TA,CBlock,Gd,TA,Gd,BLQ,1116.0,Unf,0.0,248.0,1364.0,GasA,Ex,Y,SBrkr,1663,0,0,1.0,0.0,1,0,2,1,Gd,6,Min1,2,Gd,Attchd,1954.0,Fin,2.0,529.0,TA,TA,Y,224,137,0,0,0,0,,,,0,3,2008,WD ,Normal,519 OLIVER CIR,42.02864482351206,-93.66624914356966,False,False,False,False,False,True,False,False,True,3,153.84615384615384,2.0,6652,10.882339852663634,Recent
916402125,1137,176000.0,20,54.0,13811,,IR1,Lvl,AllPub,Inside,Gtl,Timber,Norm,Norm,1Fam,1Story,6,6,1987,1987,Gable,CompShg,HdBoard,HdBoard,BrkFace,72.0,TA,TA,CBlock,Gd,Gd,No,GLQ,980.0,LwQ,40.0,92.0,1112.0,GasA,Gd,Y,SBrkr,1137,0,0,1.0,0.0,2,0,2,1,Gd,5,Typ,1,TA,Attchd,1987.0,Unf,2.0,551.0,TA,TA,Y,125,0,0,0,0,0,,,,0,7,2006,WD ,Normal,2513 WHITE OAK DR,41.99958722865255,-93.64609469150162,False,False,False,False,False,True,False,False,True,3,154.6572934973638,3.0,6822,9.533293058509884,Recent
531452010,1217,120000.0,160,75.0,10762,,Reg,Lvl,AllPub,Corner,Gtl,SawyerW,Norm,Norm,TwnhsE,2Story,6,6,1980,1980,Gable,CompShg,Plywood,Plywood,,0.0,TA,TA,CBlock,Gd,TA,No,Unf,0.0,Unf,0.0,626.0,626.0,GasA,TA,Y,SBrkr,626,591,0,0.0,0.0,1,1,3,1,TA,6,Typ,1,TA,Attchd,1980.0,RFn,1.0,288.0,TA,TA,Y,0,28,0,0,0,0,,,,0,4,2009,WD ,Normal,1302 INDIANA AVE,42.03465549651289,-93.68622907491604,False,False,False,False,False,True,False,False,True,3,98.52216748768473,1.5,7302,9.283869605264298,Recent
528363070,2494,321000.0,60,68.0,10236,,IR1,Lvl,AllPub,Inside,Gtl,NoRidge,Norm,Norm,1Fam,2Story,8,5,1994,1995,Gable,CompShg,VinylSd,VinylSd,BrkFace,501.0,Gd,TA,PConc,Gd,TA,Gd,GLQ,380.0,BLQ,168.0,742.0,1290.0,GasA,Ex,Y,SBrkr,1305,1189,0,1.0,0.0,2,1,4,1,Gd,9,Typ,1,TA,Attchd,1994.0,Fin,3.0,803.0,TA,TA,Y,200,95,0,0,0,0,,GdPrv,,0,6,2006,WD ,Normal,3202 ASPEN RD,42.051065,-93.655506,False,False,False,False,False,True,False,False,True,4,128.6573146292585,3.5,19952,9.233763886919771,Recent
533208090,1680,190000.0,160,39.0,3515,Pave,Reg,Lvl,AllPub,Inside,Gtl,Somerst,Norm,Norm,TwnhsE,2Story,7,5,2004,2004,Gable,CompShg,VinylSd,VinylSd,,0.0,Gd,TA,PConc,Gd,TA,No,Unf,0.0,Unf,0.0,840.0,840.0,GasA,Ex,Y,SBrkr,840,840,0,0.0,0.0,2,1,2,1,Gd,3,Typ,0,,Attchd,2004.0,RFn,2.0,588.0,TA,TA,Y,0,111,0,0,0,0,,,,0,1,2010,WD ,Normal,2732 NORTHRIDGE LN,42.04772986946443,-93.64603878546193,False,False,True,False,False,False,False,False,True,4,113.02795954788816,2.5,11760,8.165079258805068,New
534401130,1165,174900.0,80,82.0,9020,,Reg,Lvl,AllPub,Inside,Gtl,NAmes,Norm,Norm,1Fam,SLvl,6,7,1966,1966,Gable,CompShg,HdBoard,HdBoard,BrkFace,183.0,TA,TA,CBlock,TA,TA,Gd,Rec,312.0,ALQ,539.0,276.0,1127.0,GasA,TA,Y,SBrkr,1165,0,0,1.0,0.0,1,1,3,1,TA,6,Typ,0,,Attchd,1966.0,RFn,2.0,490.0,Gd,Gd,Y,0,129,0,0,0,0,,GdPrv,,0,5,2008,WD ,Normal,1317 COOLIDGE DR,42.0392109,-93.6294784,False,False,False,False,False,True,False,False,True,3,150.0,2.5,6990,9.107310471656639,Recent
910203230,641,85000.0,30,50.0,7030,,Reg,Lvl,AllPub,Inside,Gtl,IDOTRR,Norm,Norm,1Fam,1Story,4,6,1925,1950,Gable,CompShg,MetalSd,MetalSd,,0.0,TA,TA,BrkTil,TA,TA,No,Unf,0.0,Unf,0.0,641.0,641.0,GasA,Gd,Y,SBrkr,641,0,0,0.0,0.0,1,0,2,1,Fa,4,Typ,0,,Detchd,1925.0,Unf,1.0,272.0,TA,TA,N,184,0,70,0,0,0,,MnPrv,,0,3,2006,WD ,Normal,304 S RIVERSIDE DR,42.0208634872324,-93.62945981841196,False,False,False,False,False,False,True,False,True,3,132.39875389408098,1.0,2564,8.858084222199162,Old
907420090,1310,164990.0,20,65.0,8767,,IR1,Lvl,AllPub,Inside,Gtl,CollgCr,Norm,Norm,1Fam,1Story,7,5,2005,2005,Gable,CompShg,VinylSd,VinylSd,,0.0,Gd,TA,PConc,Gd,TA,Av,GLQ,24.0,Unf,0.0,1286.0,1310.0,GasA,Ex,Y,SBrkr,1310,0,0,0.0,0.0,2,0,3,1,Gd,6,Typ,1,Gd,Attchd,2005.0,Fin,2.0,400.0,TA,TA,Y,0,0,0,0,0,0,,,,0,7,2006,New,Partial,922 POE AVE,42.01452227144189,-93.68374009310392,False,False,False,False,False,True,False,False,True,4,125.85049580472922,2.0,9170,9.078864009187797,New
902303100,1650,144100.0,50,56.0,8398,Grvl,Reg,Lvl,AllPub,Inside,Gtl,OldTown,Norm,Norm,1Fam,1.5Fin,6,8,1910,1990,Gable,CompShg,Wd Sdng,Wd Sdng,,0.0,TA,TA,CBlock,Gd,Gd,No,BLQ,259.0,Unf,0.0,667.0,926.0,GasA,TA,Y,SBrkr,991,659,0,0.0,0.0,2,0,3,1,TA,6,Typ,0,,Detchd,1979.0,Unf,2.0,468.0,TA,TA,N,128,103,0,0,0,0,,,,0,11,2007,WD ,Normal,609 7TH ST,42.02795584333695,-93.6186268970768,False,False,False,False,False,False,True,False,True,3,87.28043609933374,2.0,9900,9.035867930125628,Old
